Station Number,Station Name,Province,Status,Latitude,Longitude,Year From,Year To,Gross Drainage Area (km2),Effective Drainage Area (km2),Regulation,Data Type,Operation Schedule,Sediment,RHBN,Real-Time,Datum Name,Publishing Office,Operating Agency,Contributed,Elevation
01AA002,DAAQUAM (RIVIERE) EN AVAL DE LA RIVIERE SHIDGEL,QC,Discontinued,46.5575,-70.08111,1967,1977,598,,N,Flow,Continuous,N,N,N,ARBITRAIRE,QUEBEC CITY,MINISTERE DE L'ENVIRONNEMENT DU QUEBEC,Y,347.3139038086
01AA004,GAUTHIER (RIVIERE) A SON EMBOUCHURE,QC,Discontinued,46.80083,-70.13806,1975,1981,16.6,,N,Level,Seasonal,N,N,N,ARBITRAIRE,QUEBEC CITY,MINISTERE DE L'ENVIRONNEMENT DU QUEBEC,Y,401
01AB001,BUCKLEY (RIVIERE) EN AVAL DU LAC JOHNNY,QC,Discontinued,46.87917,-70.0875,1973,1981,6.94,,N,Level,Seasonal,N,N,N,ARBITRAIRE,QUEBEC CITY,MINISTERE DE L'ENVIRONNEMENT DU QUEBEC,Y,411
01AD001,MADAWASKA (RIVIÈRE) À 6 KM EN AVAL DU BARRAGE TÉMISCOUATA,QC,Discontinued,47.54833,-68.63639,1918,2005,2690,,R,Flow,Continuous,N,N,N,ARBITRAIRE,QUEBEC CITY,MINISTERE DE L'ENVIRONNEMENT DU QUEBEC,Y,143.6677703857
01AD002,SAINT JOHN RIVER AT FORT KENT,NB,Active,47.25806,-68.59583,1926,2018,14700,,N,Flow,Continuous,N,Y,N,INTERNATIONAL BOUNDARY COMMISSION DATUM,DARTMOUTH,UNITED STATES GEOLOGICAL SURVEY,Y,158.8942108154
01AD003,ST. FRANCIS RIVER AT OUTLET OF GLASIER LAKE,NB,Active,47.20661,-68.95694,1951,2018,1350,,N,Flow and Level,Continuous,N,Y,Y,ASSUMED DATUM,DARTMOUTH,,N,178.7158050537
01AD004,SAINT JOHN RIVER AT EDMUNDSTON,NB,Active,47.36078,-68.32489,1967,2018,15500,,N,Flow and Level,Continuous,N,N,Y,GEODETIC SURVEY OF CANADA DATUM,DARTMOUTH,,N,134.7246398926
01AD005,MADAWASKA (RIVIERE) AU RESERVOIR TEMISCOUATA,QC,Discontinued,47.57056,-68.64306,1930,1974,2590,,R,Level,Continuous,N,N,N,ARBITRAIRE,QUEBEC CITY,QUEBEC HYDRO-ELECTRIC COMMISSION,Y,141
01AD007,PERCHE (RUISSEAU A LA) DE LA RIVIERE MADAWSKA,QC,Discontinued,47.55611,-68.64222,1930,1945,95.9,,N,Flow,Miscellaneous,N,N,N,ARBITRAIRE,QUEBEC CITY,MINISTERE DE L'ENVIRONNEMENT DU QUEBEC,Y,143.7400054932
01AD008,LONG (LAC) PRES DE LES ETROITS,QC,Discontinued,47.39083,-68.89833,1968,1974,108,,N,Level,Continuous,N,N,N,ARBITRAIRE,QUEBEC CITY,MINISTERE DE L'ENVIRONNEMENT DU QUEBEC,Y,201.5079498291
01AD009,CABANO (RIVIERE) AU LAC LONG,QC,Discontinued,47.46444,-69.00194,1973,1982,172,,N,Level,Continuous,N,N,N,ARBITRAIRE,QUEBEC CITY,MINISTERE DE L'ENVIRONNEMENT DU QUEBEC,Y,214.7042541504
01AD010,CABANO (RIVIERE) EN AVAL DU LAC TEMISCOUATA,QC,Discontinued,47.63028,-68.89778,1973,1975,291,,N,Flow,Seasonal,N,N,N,ARBITRAIRE,QUEBEC CITY,MINISTERE DE L'ENVIRONNEMENT DU QUEBEC,Y,167
01AD011,LAC SAINT-FRANCOIS,QC,Discontinued,47.73556,-69.28806,1968,1972,55.4,,N,Level,Seasonal,N,N,N,ARBITRAIRE,QUEBEC CITY,MINISTERE DE L'ENVIRONNEMENT DU QUEBEC,Y,269
01AD012,SAINT-FRANCOIS (RIVIERE) EN AVAL DU LAC SAINT-FRANCOIS,QC,Discontinued,47.72472,-69.28333,1967,1968,58.6,,N,Flow,Seasonal,N,N,N,ARBITRAIRE,QUEBEC CITY,MINISTERE DE L'ENVIRONNEMENT DU QUEBEC,Y,267
01AD014,POHENEGAMOOK (LAC) A ESTCOURT,QC,Discontinued,47.46,-69.22556,1968,1982,389,,N,Level,Seasonal,N,N,N,ARBITRAIRE,QUEBEC CITY,MINISTERE DE L'ENVIRONNEMENT DU QUEBEC,Y,211.5386810303
01AE001,FISH RIVER NEAR FORT KENT,NB,Active,47.2375,-68.58278,1903,2018,2260,,N,Flow,Continuous,N,N,N,INTERNATIONAL BOUNDARY COMMISSION DATUM,DARTMOUTH,UNITED STATES GEOLOGICAL SURVEY,Y,162.1671142578
01AF002,SAINT JOHN RIVER AT GRAND FALLS,NB,Active,47.03889,-67.73972,1930,2018,21900,,R,Flow and Level,Continuous,N,N,Y,GEODETIC SURVEY OF CANADA DATUM,DARTMOUTH,,N,106.6599273682
01AF003,GREEN RIVER NEAR RIVIERE-VERTE,NB,Discontinued,47.335,-68.135,1962,1993,1150,,R,Flow,Continuous,N,N,N,ASSUMED DATUM,DARTMOUTH,,N,137.5836029053
01AF004,SAINT JOHN RIVER AT GRAND FALLS (LOWER BASIN),NB,Discontinued,47.04,-67.74167,1923,1925,,,N,Level,Continuous,N,N,N,ASSUMED DATUM,DARTMOUTH,,N,137.1410064697
01AF005,SAINT JOHN RIVER AT GRAND FALLS (UPPER BASIN),NB,Discontinued,47.05111,-67.74139,1923,1926,,,N,Level,Continuous,N,N,N,ASSUMED DATUM,DARTMOUTH,,N,126
01AF006,BLACK BROOK NEAR ST-ANDRE-DE-MADAWASKA,NB,Discontinued,47.09139,-67.73139,1972,1974,14.2,,N,Flow,Continuous,Y,N,N,ASSUMED DATUM,DARTMOUTH,,N,175.727432251
01AF007,GRANDE RIVIERE AT VIOLETTE BRIDGE,NB,Active,47.24697,-67.92128,1977,2018,339,,N,Flow and Level,Continuous,Y,N,Y,ASSUMED DATUM,DARTMOUTH,,N,146.9908294678
01AF008,SAINT JOHN RIVER AT THE FALLS AT GRAND FALLS,NB,Discontinued,47.05139,-67.73861,1986,1988,,,R,Level,Seasonal,N,N,N,GEODETIC SURVEY OF CANADA DATUM,DARTMOUTH,,N,113.6281356812
01AF009,IROQUOIS RIVER AT MOULIN MORNEAULT,NB,Active,47.45783,-68.35683,1991,2018,182,,N,Flow and Level,Continuous,N,N,Y,ASSUMED DATUM,DARTMOUTH,,N,164.6034698486
01AF010,GREEN RIVER AT DEUXIEME SAULT,NB,Discontinued,47.47056,-68.23556,1993,2010,1030,,R,Flow,Continuous,N,N,N,ASSUMED DATUM,DARTMOUTH,CITY OF EDMUNSTON,Y,199
01AF011,LITTLE RIVER NEAR GRAND FALLS,NB,Discontinued,47.07194,-67.70778,1996,1998,380,,N,Flow,Seasonal,N,N,N,ASSUMED DATUM,DARTMOUTH,,N,153.3758850098
01AFG03,DRUMMOND GROUNDWATER AT DRUMMOND,NB,Discontinued,47.0775,-67.64167,2003,2009,,,,Level,Continuous,N,N,N,ASSUMED DATUM,DARTMOUTH,,N,241
01AG001,AROOSTOOK RIVER ABOVE HALEY ISLAND,NB,Discontinued,46.82333,-67.91361,1966,1975,5850,,R,Flow,Continuous,N,N,N,ASSUMED DATUM,DARTMOUTH,,N,110.0843505859
01AG002,LIMESTONE STREAM AT FOUR FALLS,NB,Discontinued,46.82833,-67.74306,1967,1994,199,,N,Flow,Continuous,N,N,N,ASSUMED DATUM,DARTMOUTH,,N,106.4394607544
01AG003,AROOSTOOK RIVER NEAR TINKER,NB,Active,46.81636,-67.75197,1975,2018,6060,,R,Flow and Level,Continuous,N,N,Y,ASSUMED DATUM,DARTMOUTH,,N,79.1044540405
01AH001,TOBIQUE RIVER AT ARTHURETTE,NB,Discontinued,46.79667,-67.48139,1918,1933,4140,,N,Flow,Continuous,N,N,N,,DARTMOUTH,,N,99
01AH002,TOBIQUE RIVER AT RILEY BROOK,NB,Active,47.17303,-67.21081,1961,2018,2230,,R,Flow and Level,Continuous,N,N,Y,ASSUMED DATUM,DARTMOUTH,,N,156.4462890625
01AH003,TOBIQUE RIVER AT PLASTER ROCK,NB,Discontinued,46.905,-67.395,1954,1995,3130,,R,Flow and Level,Continuous,N,N,N,ASSUMED DATUM,DARTMOUTH,,N,133.6533355713
01AH004,TOBIQUE RIVER AT NARROWS,NB,Discontinued,46.79167,-67.68333,1953,2000,4330,,R,Flow,Continuous,N,N,N,ASSUMED DATUM,DARTMOUTH,NEW BRUNSWICK ELECTRIC POWER COMMISSION,Y,102.0690078735
01AH005,MAMOZEKEL RIVER NEAR CAMPBELL RIVER,NB,Discontinued,47.25083,-67.14222,1972,1990,230,,N,Flow,Continuous,N,N,N,ASSUMED DATUM,DARTMOUTH,,N,195.9634246826
01AJ001,SAINT JOHN RIVER NEAR EAST FLORENCEVILLE,NB,Discontinued,46.47,-67.58972,1951,1995,34200,,R,Flow,Continuous,N,N,N,GEODETIC SURVEY OF CANADA DATUM,DARTMOUTH,,N,56.0550956726
01AJ002,SAINT JOHN RIVER AT WOODSTOCK,NB,Discontinued,46.15639,-67.57361,1962,1967,,,R,Level,Seasonal,N,N,N,ASSUMED DATUM,DARTMOUTH,NEW BRUNSWICK ELECTRIC POWER COMMISSION,Y,67.1816253662
01AJ003,MEDUXNEKEAG RIVER NEAR BELLEVILLE,NB,Active,46.21622,-67.72794,1967,2018,1210,,N,Flow and Level,Continuous,N,N,Y,ASSUMED DATUM,DARTMOUTH,,N,59.702911377
01AJ004,BIG PRESQUE ISLE STREAM AT TRACEY MILLS,NB,Active,46.43836,-67.73844,1967,2018,484,,N,Flow and Level,Continuous,N,Y,Y,ASSUMED DATUM,DARTMOUTH,,N,92.328086853
01AJ005,SAINT JOHN RIVER AT HARTLAND,NB,Discontinued,46.30611,-67.5325,1969,1979,,,R,Level,Continuous,N,N,N,GEODETIC SURVEY OF CANADA DATUM,DARTMOUTH,,N,46
01AJ006,HOLMES BROOK AT MOOSE MOUNTAIN,NB,Discontinued,46.61278,-67.61056,1971,1974,7.77,,N,Flow,Continuous,Y,N,N,ASSUMED DATUM,DARTMOUTH,,N,183.1317596436
01AJ007,HOLMES BROOK NEAR HOLMESVILLE,NB,Discontinued,46.57611,-67.59528,1972,1979,31.3,,N,Flow,Continuous,Y,N,N,ASSUMED DATUM,DARTMOUTH,,N,130.0337982178
01AJ008,SAINT JOHN RIVER AT HARTLAND SALMON POOL,NB,Discontinued,46.29833,-67.52917,1973,1993,,,R,Level,Continuous,N,N,N,GEODETIC SURVEY OF CANADA DATUM,DARTMOUTH,,N,46
01AJ009,SAINT JOHN RIVER AT SIMONDS,NB,Discontinued,46.3375,-67.55528,1974,1995,35000,,R,Flow and Level,Continuous,N,N,N,GEODETIC SURVEY OF CANADA DATUM,DARTMOUTH,,N,52
01AJ010,BECAGUIMEC STREAM AT COLDSTREAM,NB,Active,46.34089,-67.46511,1973,2018,350,,N,Flow and Level,Continuous,Y,Y,Y,ASSUMED DATUM,DARTMOUTH,,N,73.1880569458
01AJ011,COLD STREAM AT COLDSTREAM,NB,Discontinued,46.34222,-67.46917,1973,1993,156,,N,Flow,Continuous,N,N,N,ASSUMED DATUM,DARTMOUTH,,N,85.6117858887
01AJ012,SAINT JOHN RIVER AT BEECHWOOD GENERATING STATION,NB,Discontinued,46.54,-67.67111,1995,2000,33700,,R,Flow,Continuous,N,N,N,ASSUMED DATUM,DARTMOUTH,NEW BRUNSWICK ELECTRIC POWER COMMISSION,Y,94.9133224487
01AJ013,LITTLE PRESQUE ISLE STREAM NEAR WATERVILLE,NB,Discontinued,46.27222,-67.57,1996,1998,130,,N,Flow,Seasonal,N,N,N,ASSUMED DATUM,DARTMOUTH,,N,127.2204437256
01AJQ03,MEDUXNEKEAG RIVER AT BELLEVILLE WQ,NB,Active,46.21622,-67.72794,2018,2018,1210,,,,Continuous,N,N,N,ASSUMED DATUM,DARTMOUTH,,N,59.702911377
01AK001,SHOGOMOC STREAM NEAR TRANS CANADA HIGHWAY,NB,Active,45.94353,-67.32036,1918,2018,234,,N,Flow and Level,Continuous,N,Y,Y,ASSUMED DATUM,DARTMOUTH,,N,81.4788513184
01AK002,SAINT JOHN RIVER AT POKIOK,NB,Discontinued,45.96667,-67.24167,1918,1967,38900,,R,Flow,Continuous,N,N,N,,DARTMOUTH,,N,45
01AK003,SAINT JOHN RIVER AT FREDERICTON,NB,Active,45.96619,-66.65161,1929,2018,,,R,Level,Continuous,N,N,Y,GEODETIC SURVEY OF CANADA DATUM,DARTMOUTH,,N,6.3909878731
01AK004,SAINT JOHN RIVER BELOW MACTAQUAC,NB,Discontinued,45.96222,-66.83083,1961,1995,39900,,R,Flow and Level,Continuous,Y,N,N,GEODETIC SURVEY OF CANADA DATUM,DARTMOUTH,,N,25.3733959198
01AK005,MIDDLE BRANCH NASHWAAKSIS STREAM NEAR ROYAL ROAD,NB,Discontinued,46.035,-66.70139,1965,1993,26.9,,N,Flow,Continuous,Y,N,N,ASSUMED DATUM,DARTMOUTH,,N,54.2821350098
01AK006,MIDDLE BRANCH NASHWAAKSIS STREAM AT SANDWITH'S FARM,NB,Active,46.08281,-66.73303,1966,2018,5.7,,N,Flow and Level,Continuous,N,N,Y,ASSUMED DATUM,DARTMOUTH,,N,158.8254394531
01AK007,NACKAWIC STREAM NEAR TEMPERANCE VALE,NB,Active,46.04878,-67.23961,1967,2018,240,,N,Flow and Level,Continuous,N,N,Y,ASSUMED DATUM,DARTMOUTH,,N,60.5373764038
01AK008,EEL RIVER NEAR SCOTT SIDING,NB,Discontinued,45.93667,-67.54694,1974,1992,531,,N,Flow,Continuous,N,N,N,ASSUMED DATUM,DARTMOUTH,,N,94.8977050781
01AK009,SAINT JOHN RIVER AT MACTAQUAC GENERATING STATION,NB,Discontinued,45.95667,-66.86472,1980,1993,,,R,Level,Continuous,N,N,N,GEODETIC SURVEY OF CANADA DATUM,DARTMOUTH,,N,16.6906661987
01AKG01,ROYAL ROAD GROUNDWATER ON ROYAL ROAD,NB,Active,46.05639,-66.71111,1981,2018,,,,Level,Continuous,N,N,Y,GEODETIC SURVEY OF CANADA DATUM,DARTMOUTH,,N,119.3826599121
01AKG03,LAKE GEORGE GROUNDWATER AT LAKE GEORGE,NB,Active,45.84403,-67.02483,2003,2018,,,,Level,Continuous,N,N,Y,ASSUMED DATUM,DARTMOUTH,,N,182
01AL001,NASHWAAK RIVER AT PENNIAC,NB,Discontinued,46.00917,-66.58306,1982,1984,1660,,,Level,Seasonal,N,N,N,ASSUMED DATUM,DARTMOUTH,NEW BRUNSWICK DEPARTMENT OF THE ENVIRONMENT,Y,5.149263382
01AL002,NASHWAAK RIVER AT DURHAM BRIDGE,NB,Active,46.12592,-66.61131,1961,2018,1450,,N,Flow and Level,Continuous,Y,N,Y,GEODETIC SURVEY OF CANADA DATUM,DARTMOUTH,,N,16.9540882111
01AL003,HAYDEN BROOK NEAR NARROWS MOUNTAIN,NB,Discontinued,46.29889,-67.03694,1970,1993,6.48,,N,Flow,Continuous,N,N,N,ASSUMED DATUM,DARTMOUTH,,N,200.4850463867
01AL004,NARROWS MOUNTAIN BROOK NEAR NARROWS MOUNTAIN,NB,Active,46.27717,-67.02139,1972,2018,3.89,,N,Flow and Level,Continuous,Y,N,Y,ASSUMED DATUM,DARTMOUTH,,N,209.9942626953
01AL005,"NARROWS MOUNTAIN BROOK, BRANCH NO.1, NEAR NARROWS MOUNTAIN",NB,Discontinued,46.27694,-67.04361,1977,1980,0.8,,N,Flow,Continuous,N,N,N,ASSUMED DATUM,DARTMOUTH,,N,259.7146606445
01AL006,"NARROWS MOUNTAIN BROOK, BRANCH NO.2, NEAR NARROWS MOUNTAIN",NB,Discontinued,46.27694,-67.04333,1977,1980,0.91,,N,Flow,Continuous,N,N,N,ASSUMED DATUM,DARTMOUTH,,N,258.7146606445
01AL007,"NARROWS MOUNTAIN BROOK, BRANCH NO.3, NEAR NARROWS MOUNTAIN",NB,Discontinued,46.27944,-67.03639,1977,1980,0.41,,N,Flow,Continuous,N,N,N,ASSUMED DATUM,DARTMOUTH,,N,261
01AL008,NASHWAAK RIVER AT STANLEY,NB,Discontinued,46.28306,-66.7375,1982,1995,641,,N,Flow and Level,Continuous,N,N,N,ASSUMED DATUM,DARTMOUTH,,N,80
01AL009,NASHWAAK RIVER AT NASHWAAK BRIDGE,NB,Discontinued,46.24056,-66.61278,1982,1984,,,,Level,Seasonal,N,N,N,ASSUMED DATUM,DARTMOUTH,NEW BRUNSWICK DEPARTMENT OF THE ENVIRONMENT,Y,36
01AL010,NASHWAAK RIVER AT TAYMOUTH,NB,Discontinued,46.18278,-66.61944,1982,1984,,,,Level,Seasonal,N,N,N,ASSUMED DATUM,DARTMOUTH,NEW BRUNSWICK DEPARTMENT OF THE ENVIRONMENT,Y,44.3857917786
01AM001,NORTH BRANCH OROMOCTO RIVER AT TRACY,NB,Active,45.67378,-66.68289,1962,2018,557,,N,Flow and Level,Continuous,N,N,Y,ASSUMED DATUM,DARTMOUTH,,N,19.8901157379
01AM002,OROMOCTO RIVER NEAR FRENCH LAKE,NB,Discontinued,45.76639,-66.55056,1974,1974,,,R,Level,Seasonal,N,N,N,GEODETIC SURVEY OF CANADA DATUM,DARTMOUTH,NEW BRUNSWICK DEPARTMENT OF THE ENVIRONMENT,Y,1
01AMG01,NEW MARYLAND GROUNDWATER AT VICTORIA PARK,NB,Active,45.89111,-66.68889,1979,2018,,,,Level,Continuous,N,N,Y,GEODETIC SURVEY OF CANADA DATUM,DARTMOUTH,,N,123.6222686768
01AN001,CASTAWAY STREAM NEAR CASTAWAY,NB,Discontinued,46.29833,-65.71194,1972,1992,34.4,,N,Flow,Continuous,N,N,N,ASSUMED DATUM,DARTMOUTH,,N,20.5910835266
01AN002,SALMON RIVER AT CASTAWAY,NB,Active,46.29072,-65.72275,1974,2018,1050,,N,Flow and Level,Continuous,N,N,Y,ASSUMED DATUM,DARTMOUTH,,N,16
01AO001,SAINT JOHN RIVER AT OROMOCTO,NB,Discontinued,45.85556,-66.47222,1921,1949,,,N,Level,Continuous,N,N,N,ASSUMED DATUM,DARTMOUTH,,N,1
01AO002,SAINT JOHN RIVER AT MAUGERVILLE,NB,Active,45.86647,-66.45317,1978,2018,,,R,Level,Continuous,N,N,Y,GEODETIC SURVEY OF CANADA DATUM,DARTMOUTH,,N,17.8100681305
01AO003,GRAND LAKE AT NEWCASTLE CREEK,NB,Active,46.0564,-66.0057,1968,2018,,,R,Level,Continuous,N,N,Y,GEODETIC SURVEY OF CANADA DATUM,DARTMOUTH,,N,2
01AO004,JEMSEG RIVER AT JEMSEG,NB,Active,45.82892,-66.11542,1971,2018,,,R,Level,Continuous,N,N,Y,GEODETIC SURVEY OF CANADA DATUM,DARTMOUTH,,N,1.3424319029
01AO005,PORTOBELLO STREAM UPSTREAM OF BURNS BRIDGE,NB,Discontinued,45.89944,-66.42972,1974,1974,,,R,Level,Seasonal,N,N,N,GEODETIC SURVEY OF CANADA DATUM,DARTMOUTH,NEW BRUNSWICK DEPARTMENT OF THE ENVIRONMENT,Y,3.9353318214
01AO006,PORTOBELLO STREAM DOWNSTREAM OF BURNS BRIDGE,NB,Discontinued,45.89944,-66.42778,1974,1974,,,R,Level,Seasonal,N,N,N,GEODETIC SURVEY OF CANADA DATUM,DARTMOUTH,NEW BRUNSWICK DEPARTMENT OF THE ENVIRONMENT,Y,8.8992328644
01AO007,FRENCH LAKE ABOVE LAKEVILLE CORNER BRIDGE,NB,Discontinued,45.90167,-66.25833,1974,1974,,,R,Level,Seasonal,N,N,N,GEODETIC SURVEY OF CANADA DATUM,DARTMOUTH,NEW BRUNSWICK DEPARTMENT OF THE ENVIRONMENT,Y,1
01AO008,MAQUAPIT LAKE BELOW LAKEVILLE CORNER BRIDGE,NB,Discontinued,45.90167,-66.25694,1974,1974,,,R,Level,Seasonal,N,N,N,GEODETIC SURVEY OF CANADA DATUM,DARTMOUTH,NEW BRUNSWICK DEPARTMENT OF THE ENVIRONMENT,Y,1
01AO009,BURPEE MILLSTREAM NEAR FERNMOUNT,NB,Discontinued,45.95667,-66.31139,1976,1993,93.2,,N,Flow,Continuous,N,N,N,ASSUMED DATUM,DARTMOUTH,,N,39.7215957642
01AO010,FRENCH LAKE AT LAKEVILLE CORNER,NB,Active,45.90883,-66.25644,1980,2018,,,R,Level,Continuous,N,N,Y,GEODETIC SURVEY OF CANADA DATUM,DARTMOUTH,,N,5.4422502518
01AO011,SAINT JOHN RIVER AT UPPER GAGETOWN,NB,Active,45.84725,-66.23486,1994,2018,,,R,Level,Continuous,N,N,Y,GEODETIC SURVEY OF CANADA DATUM,DARTMOUTH,,N,1
01AO012,SAINT JOHN RIVER AT GAGETOWN,NB,Active,45.76867,-66.14036,1994,2018,,,R,Level,Continuous,N,N,Y,GEODETIC SURVEY OF CANADA DATUM,DARTMOUTH,,N,3.4005155563
01AP001,KENNEBECASIS RIVER AT NORTON,NB,Discontinued,45.63583,-65.70167,1920,1926,1210,,N,Flow,Continuous,N,N,N,,DARTMOUTH,,N,7
01AP002,CANAAN RIVER AT EAST CANAAN,NB,Active,46.07236,-65.36639,1925,2018,668,,N,Flow and Level,Continuous,N,Y,Y,ASSUMED DATUM,DARTMOUTH,,N,17
01AP003,SAINT JOHN RIVER AT OAK POINT,NB,Active,45.51942,-66.07661,1923,2018,,,R,Level,Continuous,N,N,Y,GEODETIC SURVEY OF CANADA DATUM,DARTMOUTH,,N,1
01AP004,KENNEBECASIS RIVER AT APOHAQUI,NB,Active,45.70139,-65.60169,1961,2018,1100,,N,Flow and Level,Continuous,Y,Y,Y,GEODETIC SURVEY OF CANADA DATUM,DARTMOUTH,,N,6.8928923607
01AP005,SAINT JOHN RIVER AT SAINT JOHN,NB,Active,45.27339,-66.08889,1972,2018,,,R,Level,Continuous,N,N,Y,GEODETIC SURVEY OF CANADA DATUM,DARTMOUTH,,N,1
01AP006,NEREPIS RIVER NEAR FOWLERS CORNER,NB,Active,45.50344,-66.31897,1976,2018,293,,N,Flow and Level,Continuous,N,N,Y,ASSUMED DATUM,DARTMOUTH,,N,25.9678325653
01AP008,KENNEBECASIS RIVER BELOW NORTON,NB,Discontinued,45.62306,-65.71528,1982,1984,,,,Level,Seasonal,N,N,N,ASSUMED DATUM,DARTMOUTH,NEW BRUNSWICK DEPARTMENT OF THE ENVIRONMENT,Y,11.2524518967
01AP009,PARLEE BROOK BELOW ARNOLDS BRIDGE,NB,Discontinued,45.6725,-65.41833,1989,1992,35.4,,N,Flow,Continuous,N,N,N,ASSUMED DATUM,DARTMOUTH,,N,76.6381530762
01AP010,OTNABOG STREAM ABOVE OTNABOG LAKE,NB,Discontinued,45.7055,-66.192,2009,2012,,,N,Level,Continuous,N,N,N,ASSUMED DATUM,DARTMOUTH,,N,23.8411178589
01APG02,SMITH CREEK GROUNDWATER ON ROUTE 890 NEAR SMITH CREEK,NB,Active,45.79556,-65.47944,2003,2018,,,,Level,Continuous,N,N,Y,ASSUMED DATUM,DARTMOUTH,,N,27.709104538
01AQ001,LEPREAU RIVER AT LEPREAU,NB,Active,45.16978,-66.46828,1918,2018,239,,N,Flow and Level,Continuous,N,Y,Y,ASSUMED DATUM,DARTMOUTH,,N,15
01AQ002,MAGAGUADAVIC RIVER AT ELMCROFT,NB,Active,45.27333,-66.80667,1919,2018,1420,,R,Flow and Level,Continuous,N,N,Y,ASSUMED DATUM,DARTMOUTH,,N,27
01AQ003,WEST MUSQUASH RIVER AT MUSQUASH,NB,Discontinued,45.18806,-66.35167,1929,1934,210,,R,Flow,Continuous,N,N,N,,DARTMOUTH,NEW BRUNSWICK ELECTRIC POWER COMMISSION,Y,40.4480171204
01AQ004,EAST MUSQUASH RIVER AT MUSQUASH,NB,Discontinued,45.20472,-66.32611,1929,1934,179,,R,Flow,Continuous,N,N,N,,DARTMOUTH,NEW BRUNSWICK ELECTRIC POWER COMMISSION,Y,17.1551990509
01AQ005,MAGAGUADAVIC RIVER AT SECOND FALLS,NB,Discontinued,45.23167,-66.84333,1928,1933,1540,,R,Flow,Continuous,N,N,N,,DARTMOUTH,,N,29.8044452667
01AQ006,LITTLE LEPREAU RIVER NEAR LEPREAU,NB,Discontinued,45.13917,-66.44833,1976,1976,38.3,,N,Flow,Seasonal,N,N,N,ASSUMED DATUM,DARTMOUTH,,N,23.6111240387
01AQ007,MAGAGUADAVIC LAKE NEAR UPPER MAGAGUADAVIC,NB,Active,45.71975,-67.18356,1979,2018,,,R,Level,Continuous,N,N,Y,GEODETIC SURVEY OF CANADA DATUM,DARTMOUTH,,N,110.5200424194
01AQ008,PISKAHEGAN STREAM NEAR PLEASANT MOUNTAIN,NB,Discontinued,45.41806,-66.88694,1986,1995,197,,N,Flow,Continuous,N,N,N,ASSUMED DATUM,DARTMOUTH,,N,87.5812759399
01AQ009,LAKE UTOPIA AT CANAL,NB,Discontinued,45.16028,-66.82778,1985,1992,,,R,Level,Seasonal,N,N,N,GEODETIC SURVEY OF CANADA DATUM,DARTMOUTH,,N,13
01AR001,DENNIS STREAM AT MOORES MILLS,NB,Discontinued,45.29278,-67.27222,1919,1920,62.2,,N,Flow,Seasonal,N,N,N,,DARTMOUTH,,N,87.5665969849
01AR002,EEL BROOK NEAR NORTH HEAD,NB,Discontinued,44.79139,-66.78139,1966,1967,2.85,,N,Flow,Miscellaneous,N,N,N,,DARTMOUTH,,N,61.582408905
01AR003,ST. CROIX RIVER NEAR BAILEYVILLE,NB,Discontinued,45.26528,-67.47667,1919,1983,3420,,R,Flow,Continuous,N,N,N,ASSUMED DATUM,DARTMOUTH,,N,68.7952346802
01AR004,ST. CROIX RIVER AT VANCEBORO,NB,Active,45.56889,-67.42972,1928,2018,1080,,R,Flow,Continuous,N,N,N,INTERNATIONAL BOUNDARY COMMISSION DATUM,DARTMOUTH,UNITED STATES GEOLOGICAL SURVEY,Y,127.0512466431
01AR005,ST. CROIX RIVER AT BARING,NB,Active,45.13667,-67.31806,1959,2018,3550,,R,Flow,Continuous,N,N,N,INTERNATIONAL BOUNDARY COMMISSION DATUM,DARTMOUTH,UNITED STATES GEOLOGICAL SURVEY,Y,25.0169868469
01AR006,DENNIS STREAM NEAR ST. STEPHEN,NB,Active,45.20972,-67.2625,1966,2018,115,,R,Flow and Level,Continuous,Y,N,Y,ASSUMED DATUM,DARTMOUTH,,N,14.4429159164
01AR007,BOCABEC RIVER AT OUTLET OF KERR LAKE,NB,Discontinued,45.2075,-67.01944,1968,1968,12.4,,N,Flow,Seasonal,N,N,N,,DARTMOUTH,,N,60.7751121521
01AR008,BOCABEC RIVER ABOVE TIDE,NB,Discontinued,45.19306,-66.99889,1967,1979,43,,N,Flow,Continuous,N,N,N,ASSUMED DATUM,DARTMOUTH,,N,9.2829866409
01AR009,GRAND LAKE AT FOREST CITY,NB,Active,45.66489,-67.73589,1969,2018,,,R,Level,Continuous,N,N,Y,INTERNATIONAL BOUNDARY COMMISSION DATUM,DARTMOUTH,,N,131.9941253662
01AR010,SPEDNIC LAKE AT ST. CROIX,NB,Active,45.56922,-67.42725,1969,2018,,,R,Level,Continuous,N,N,Y,GEODETIC SURVEY OF CANADA DATUM,DARTMOUTH,,N,117.2682113647
01AR011,FOREST CITY STREAM BELOW FOREST CITY DAM,NB,Active,45.66417,-67.73356,1969,2018,357,,R,Flow and Level,Continuous,N,N,Y,INTERNATIONAL BOUNDARY COMMISSION DATUM,DARTMOUTH,,N,142.9082183838
01AR012,CHAMCOOK STREAM AT LITTLE CHAMCOOK LAKE OUTLET,NB,Discontinued,45.15722,-67.09611,1968,1993,,,N,Flow,Continuous,N,N,N,ASSUMED DATUM,DARTMOUTH,,N,45.1407814026
01AR013,GRAND FALLS FLOWAGE AT GRAND FALLS,NB,Active,45.2745,-67.49636,1980,2018,,,R,Level,Continuous,N,N,Y,INTERNATIONAL BOUNDARY COMMISSION DATUM,DARTMOUTH,,N,61
01AR014,ST. CROIX RIVER AT MILLTOWN DAM,NB,Active,45.17522,-67.2929,2006,2018,,,R,Level,Continuous,N,N,Y,NATIONAL GEODETIC VERTICAL DATUM 1929 CORP OF ENG.,DARTMOUTH,,N,13.3060626984
01BA001,RESTIGOUCHE RIVER ABOVE KEDGWICK RIVER,NB,Discontinued,47.65639,-67.49417,1973,1979,1570,,N,Flow,Continuous,N,N,N,ASSUMED DATUM,DARTMOUTH,,N,130.6311187744
01BC001,RESTIGOUCHE RIVER BELOW KEDGWICK RIVER,NB,Active,47.66708,-67.48308,1962,2018,3160,,N,Flow and Level,Continuous,N,Y,Y,ASSUMED DATUM,DARTMOUTH,,N,116.1504821777
01BD001,MATAPEDIA (RIVIERE) EN AMONT DE LA RIVIERE ASSEMETQUAGAN,QC,Discontinued,48.08444,-67.09861,1965,1969,2770,,R,Flow,Continuous,N,N,N,ARBITRAIRE,QUEBEC CITY,MINISTERE DE L'ENVIRONNEMENT DU QUEBEC,Y,48.7853813171
01BD003,GILMOUR (RUISSEAU) A ROUTE 132,QC,Discontinued,48.00056,-66.99361,1979,1981,25.3,,N,Level,Seasonal,N,N,N,ARBITRAIRE,QUEBEC CITY,MINISTERE DE L'ENVIRONNEMENT DU QUEBEC,Y,25.5867099762
01BD004,MATAPEDIA (LAC) A VAL-BRILLANT,QC,Discontinued,48.53389,-67.54556,1966,1983,558,,N,Flow and Level,Continuous,N,N,N,ARBITRAIRE,QUEBEC CITY,MINISTERE DE L'ENVIRONNEMENT DU QUEBEC,Y,158.2431945801
01BD005,LAC AU SAUMON,QC,Discontinued,48.42111,-67.32417,1968,1969,1210,,N,Level,Seasonal,N,N,N,ARBITRAIRE,QUEBEC CITY,MINISTERE DE L'ENVIRONNEMENT DU QUEBEC,Y,140
01BD006,PORTAGE (LAC DU),QC,Discontinued,48.64361,-67.58111,1968,1974,15.3,,N,Level,Seasonal,N,N,N,ARBITRAIRE,QUEBEC CITY,MINISTERE DE L'ENVIRONNEMENT DU QUEBEC,Y,174.7166595459
01BD007,HUMBQUI (LAC),QC,Discontinued,48.25472,-67.565,1968,1974,98.9,,N,Level,Seasonal,N,N,N,ARBITRAIRE,QUEBEC CITY,MINISTERE DE L'ENVIRONNEMENT DU QUEBEC,Y,274.6524353027
01BD008,MATAPEDIA (RIVIERE) PRES DE AMQUI,QC,Active,48.49167,-67.45,1982,2018,558,,N,,Continuous,N,N,Y,ARBITRAIRE,QUEBEC CITY,MINISTERE DE L'ENVIRONNEMENT DU QUEBEC,Y,163.9734344482
01BD009,MATAPEDIA (RIVIERE) A 4 KM EN AMONT DE L'ASSEMETQUAGAN,QC,Active,48.1079,-67.1302,1996,2018,2760,,N,Flow,Continuous,N,N,Y,ARBITRAIRE,QUEBEC CITY,MINISTERE DE L'ENVIRONNEMENT DU QUEBEC,Y,57.7713699341
01BE001,UPSALQUITCH RIVER AT UPSALQUITCH,NB,Active,47.83247,-66.88708,1918,2018,2270,,N,Flow and Level,Continuous,N,Y,Y,ASSUMED DATUM,DARTMOUTH,,N,33
01BF001,NOUVELLE (RIVIERE) AU PONT,QC,Discontinued,48.15722,-66.34944,1964,2001,1140,,N,Flow,Continuous,N,N,N,ARBITRAIRE,QUEBEC CITY,MINISTERE DE L'ENVIRONNEMENT DU QUEBEC,Y,18.5716743469
01BF002,NOUVELLE (RIVIERE) EN AVAL DU PONT,QC,Discontinued,48.13556,-66.31944,1967,1970,1160,,R,Level,Seasonal,N,N,N,ARBITRAIRE,QUEBEC CITY,MINISTERE DE L'ENVIRONNEMENT DU QUEBEC,Y,8.4892654419
01BF003,NOUVELLE (RIVIERE) EN AMONT DU PONT,QC,Discontinued,48.16167,-66.38028,1967,1970,867,,R,Level,Seasonal,N,N,N,ARBITRAIRE,QUEBEC CITY,MINISTERE DE L'ENVIRONNEMENT DU QUEBEC,Y,20
01BF004,"NOUVELLE (RIVIÈRE) A 0,2 KM EN AMONT DU PONT-ROUTE 132 A NOUVELLE",QC,Active,48.1588,-66.3488,2002,2018,1140,,N,Flow,Continuous,N,N,Y,,QUEBEC CITY,MINISTERE DE L'ENVIRONNEMENT DU QUEBEC,Y,17.6474781036
01BG001,CASCAPEDIA (PETITE RIVIERE) EN AMONT DU PONT,QC,Discontinued,48.18917,-65.81194,1961,1980,1390,,N,Flow,Continuous,N,N,N,ARBITRAIRE,QUEBEC CITY,MINISTERE DE L'ENVIRONNEMENT DU QUEBEC,Y,7
01BG002,BONAVENTURE (RIVIERE) EN AMONT DU PONT,QC,Discontinued,48.1,-65.46167,1965,1983,2150,,N,Flow,Continuous,N,N,N,ARBITRAIRE,QUEBEC CITY,MINISTERE DE L'ENVIRONNEMENT DU QUEBEC,Y,13
01BG003,CASCAPEDIA (RIVIERE) EN AVAL DU LAC CASCAPEDIA,QC,Discontinued,48.66639,-66.18944,1966,1979,1480,,N,Flow,Continuous,N,N,N,ARBITRAIRE,QUEBEC CITY,MINISTERE DE L'ENVIRONNEMENT DU QUEBEC,Y,142
01BG004,CASCAPEDIA (RIVIERE) EN AMONT DE LA RIVIERE ANGERS,QC,Discontinued,48.31778,-65.9725,1967,1972,2400,,N,Flow,Continuous,N,N,N,ARBITRAIRE,QUEBEC CITY,MINISTERE DE L'ENVIRONNEMENT DU QUEBEC,Y,28.0320091248
01BG005,CASCAPEDIA (RIVIERE) EN AVAL DU RUISSEAU BERRY,QC,Active,48.62833,-66.16806,1978,2018,1680,,N,Flow,Continuous,N,N,Y,ARBITRAIRE,QUEBEC CITY,MINISTERE DE L'ENVIRONNEMENT DU QUEBEC,Y,140.4413299561
01BG006,BASTIEN (RUISSEAU) EN AMONT DU PONT,QC,Discontinued,48.10972,-66.12694,1969,1972,12.4,,N,Flow,Continuous,Y,N,N,ARBITRAIRE,QUEBEC CITY,MINISTERE DE L'ENVIRONNEMENT DU QUEBEC,Y,6
01BG007,CHALEURS (BAIE DES) A CARLETON,QC,Discontinued,48.09028,-66.11611,1969,1970,,,N,Level,Continuous,N,N,N,ARBITRAIRE,QUEBEC CITY,MINISTERE DE L'ENVIRONNEMENT DU QUEBEC,Y,0
01BG008,CASCAPEDIA (PETITE RIVIERE) A SAINT-EDGAR,QC,Active,48.23083,-65.735,1980,2018,1340,,N,Flow,Continuous,N,N,Y,ARBITRAIRE,QUEBEC CITY,MINISTERE DE L'ENVIRONNEMENT DU QUEBEC,Y,23
01BG009,BONAVENTURE (RIVIERE) EN AMONT DU RUISSEAU CREUX,QC,Active,48.18611,-65.55861,1982,2018,1910,,N,Flow,Continuous,N,N,Y,,QUEBEC CITY,MINISTERE DE L'ENVIRONNEMENT DU QUEBEC,Y,67.3695526123
01BG010,CASCAPÉDIA (PETITE RIVIÈRE) À 0.9 KM RIVE DROITE AVAL  PONT-ROUTE À SAINT-EDGAR,QC,Discontinued,48.2323,-65.7341,1982,2018,1340,,,Flow and Level,Continuous,N,N,N,,QUEBEC CITY,MINISTERE DE L'ENVIRONNEMENT DU QUEBEC,Y,26
01BH001,DARTMOUTH (RIVIERE) PRES DE CORTEREAL,QC,Discontinued,48.93306,-64.63556,1922,1970,748,,N,Flow and Level,Continuous,N,N,N,ARBITRAIRE,QUEBEC CITY,MINISTERE DE L'ENVIRONNEMENT DU QUEBEC,Y,10.4659395218
01BH002,YORK (RIVIERE) A SUNNY BANK,QC,Discontinued,48.83417,-64.625,1945,1979,1010,,N,Flow,Continuous,Y,N,N,ARBITRAIRE,QUEBEC CITY,MINISTERE DE L'ENVIRONNEMENT DU QUEBEC,Y,10.282289505
01BH003,PORPHYRE (RUISSEAU),QC,Discontinued,48.94583,-65.48944,1951,1954,30.2,,N,Flow and Level,Seasonal,N,N,N,ARBITRAIRE,QUEBEC CITY,MINISTERE DE L'ENVIRONNEMENT DU QUEBEC,Y,528.6657714844
01BH005,DARTMOUTH (RIVIERE) EN AMONT DU RUISSEAU DU PAS DE DAME,QC,Active,48.97972,-64.69861,1970,2018,645,,N,Flow and Level,Continuous,N,Y,Y,ARBITRAIRE,QUEBEC CITY,MINISTERE DE L'ENVIRONNEMENT DU QUEBEC,Y,40.9077110291
01BH006,PETITE FOURCHE (RIVIERE DE LA) EN AVAL DU LAC D'AMOURS,QC,Discontinued,49.01889,-64.55333,1973,1974,38.7,,N,Flow,Seasonal,N,N,N,ARBITRAIRE,QUEBEC CITY,MINISTERE DE L'ENVIRONNEMENT DU QUEBEC,Y,121
01BH007,GRANDE-RIVIERE OUEST (LA),QC,Discontinued,48.47778,-64.52861,1972,1997,534,,N,Flow,Continuous,N,N,N,ARBITRAIRE,QUEBEC CITY,MINISTERE DE L'ENVIRONNEMENT DU QUEBEC,Y,15.4280815125
01BH008,SAINT-JEAN (RIVIERE),QC,Discontinued,48.77167,-64.52139,1979,1989,1090,,N,Flow,Seasonal,N,N,N,ARBITRAIRE,QUEBEC CITY,MINISTERE DE L'ENVIRONNEMENT DU QUEBEC,Y,19.3768577576
01BH009,YORK RIVIERE) EN AMONT DU RUISSEAU D'ARGENT,QC,Discontinued,48.83167,-64.685,1979,1979,972,,N,Flow,Continuous,N,N,N,ARBITRAIRE,QUEBEC CITY,MINISTERE DE L'ENVIRONNEMENT DU QUEBEC,Y,16
01BH010,"YORK (RIVIERE) À 1,4 KM EN AVAL DU RUISSEAU DINNER ISLAND",QC,Active,48.80667,-64.92111,1980,2018,659,,N,Flow,Continuous,N,N,Y,ARBITRAIRE,QUEBEC CITY,MINISTERE DE L'ENVIRONNEMENT DU QUEBEC,Y,101.2569198608
01BH011,YORK (RIVIERE) EN AVAL DU RUISSEAU DES ETROITS,QC,Discontinued,48.79833,-64.94778,1982,1989,637,,N,Flow,Continuous,N,N,N,,QUEBEC CITY,MINISTERE DE L'ENVIRONNEMENT DU QUEBEC,Y,108.9629974365
01BH012,SAINT-JEAN (RIVIERE) EN AMONT DU PONT-ROUTE 132,QC,Discontinued,48.76889,-64.515,1989,2006,1090,,,Flow,Seasonal,N,N,N,,QUEBEC CITY,MINISTERE DE L'ENVIRONNEMENT DU QUEBEC,Y,18
01BJ001,TETAGOUCHE RIVER NEAR WEST BATHURST,NB,Discontinued,47.65583,-65.69361,1922,1995,363,,N,Flow,Continuous,N,N,N,ASSUMED DATUM,DARTMOUTH,,N,9.6637506485
01BJ002,EEL RIVER AT EEL RIVER CROSSING,NB,Discontinued,48.01306,-66.42333,1962,1963,100,,N,Flow,Continuous,N,N,N,,DARTMOUTH,,N,8
01BJ003,JACQUET RIVER NEAR DURHAM CENTRE,NB,Active,47.89381,-66.02522,1964,2018,510,,N,Flow and Level,Continuous,N,Y,Y,ASSUMED DATUM,DARTMOUTH,,N,9
01BJ004,EEL RIVER NEAR EEL RIVER CROSSING,NB,Discontinued,48.01444,-66.43833,1967,1983,88.6,,N,Flow,Continuous,N,N,N,ASSUMED DATUM,DARTMOUTH,,N,16.3857631683
01BJ005,SOUTH LITTLE RIVER AT THERIAULT ROAD,NB,Discontinued,47.51861,-65.8075,1967,1971,,,R,Flow,Continuous,N,N,N,,DARTMOUTH,,N,107
01BJ006,LITTLE RIVER AT CARROLL'S FARM,NB,Discontinued,47.5675,-65.70194,1979,1979,,,R,Flow,Seasonal,N,N,N,ASSUMED DATUM,DARTMOUTH,,N,34
01BJ007,RESTIGOUCHE RIVER ABOVE RAFTING GROUND BROOK,NB,Active,47.90867,-66.94806,1968,2018,7740,,N,Flow and Level,Continuous,N,N,Y,ASSUMED DATUM,DARTMOUTH,,N,12.2835416794
01BJ008,MILLSTREAM RIVER AT ROBERTVILLE,NB,Discontinued,47.70222,-65.77639,1969,1972,105,,N,Flow,Seasonal,N,N,N,,DARTMOUTH,,N,39.1396751404
01BJ009,WALKER BROOK AT CAMPBELLTON,NB,Discontinued,47.98806,-66.69694,1980,1993,60.8,,R,Flow,Continuous,N,N,N,ASSUMED DATUM,DARTMOUTH,,N,30
01BJ010,MIDDLE RIVER NEAR BATHURST,NB,Active,47.60839,-65.72181,1981,2018,217,,N,Flow and Level,Continuous,Y,N,Y,ASSUMED DATUM,DARTMOUTH,,N,39.9809455872
01BJ011,NIGADOO RIVER NEAR ALCIDA,NB,Discontinued,47.74,-65.81278,1981,1992,123,,N,Flow,Continuous,N,N,N,ASSUMED DATUM,DARTMOUTH,,N,67.7760162354
01BJ012,EEL RIVER NEAR DUNDEE,NB,Active,47.98789,-66.49061,1983,2018,43.2,,N,Flow and Level,Continuous,N,N,Y,ASSUMED DATUM,DARTMOUTH,,N,56.4021339417
01BJG02,NORTH SHANNONVALE GROUNDWATER AT NORTH SHANNONVALE,NB,Active,48.01778,-66.44944,2003,2018,,,,Level,Continuous,N,N,Y,ASSUMED DATUM,DARTMOUTH,,N,24
01BK001,NEPISIGUIT RIVER AT BATHURST MINES,NB,Discontinued,47.38889,-65.82722,1918,1921,1810,,N,Flow,Continuous,N,N,N,,DARTMOUTH,,N,103
01BK002,NEPISIGUIT RIVER AT NEPISIGUIT NARROWS,NB,Discontinued,47.36194,-65.845,1922,1924,1790,,N,Flow,Miscellaneous,N,N,N,,DARTMOUTH,,N,111.1502075195
01BK003,NEPISIGUIT RIVER AT NEPISIGUIT FALLS,NB,Discontinued,47.40667,-65.795,1921,2005,1840,,R,Flow,Continuous,N,N,N,ASSUMED DATUM,DARTMOUTH,NEW BRUNSWICK ELECTRIC POWER COMMISSION,Y,127
01BK004,NEPISIGUIT RIVER NEAR PABINEAU FALLS,NB,Discontinued,47.49444,-65.68056,1957,1974,2090,,R,Flow,Continuous,N,N,N,ASSUMED DATUM,DARTMOUTH,,N,41
01BK005,FORTY MILE BROOK AT CARIBOU DEPOT,NB,Discontinued,47.56778,-66.285,1981,1984,14.2,,R,Flow,Continuous,N,N,N,ASSUMED DATUM,DARTMOUTH,,N,372.1119995117
01BK006,FORTY MILE BROOK (WEST BRANCH) AT CARIBOU DEPOT,NB,Discontinued,47.55944,-66.27833,1981,1989,13,,N,Flow,Continuous,N,N,N,ASSUMED DATUM,DARTMOUTH,,N,380.256439209
01BL001,BASS RIVER AT BASS RIVER,NB,Discontinued,47.65,-65.57778,1965,1992,175,,N,Flow,Continuous,N,N,N,ASSUMED DATUM,DARTMOUTH,,N,8
01BL002,RIVIERE CARAQUET AT BURNSVILLE,NB,Active,47.70561,-65.15539,1969,2018,173,,N,Flow and Level,Continuous,N,Y,Y,ASSUMED DATUM,DARTMOUTH,,N,12
01BL003,BIG TRACADIE RIVER AT MURCHY BRIDGE CROSSING,NB,Active,47.43578,-65.10606,1970,2018,383,,N,Flow and Level,Continuous,N,N,Y,ASSUMED DATUM,DARTMOUTH,,N,7.3958516121
01BLG08,CARAQUET GROUNDWATER AT CARAQUET,NB,Active,47.78,-64.89194,1982,2018,,,,Level,Continuous,N,N,Y,GEODETIC SURVEY OF CANADA DATUM,DARTMOUTH,,N,17
01BO001,SOUTHWEST MIRAMICHI RIVER AT BLACKVILLE,NB,Active,46.736,-65.82561,1918,2018,5050,,N,Flow and Level,Continuous,Y,Y,Y,ASSUMED DATUM,DARTMOUTH,,N,10.0555047989
01BO002,RENOUS RIVER AT MCGRAW BROOK,NB,Discontinued,46.82139,-66.11472,1965,1995,611,,N,Flow,Continuous,Y,N,N,ASSUMED DATUM,DARTMOUTH,,N,55.8906669617
01BO003,BARNABY RIVER BELOW SEMIWAGAN RIVER,NB,Discontinued,46.88861,-65.59556,1973,1995,484,,N,Flow,Continuous,Y,N,N,ASSUMED DATUM,DARTMOUTH,,N,10
01BO004,BARTIBOG RIVER BELOW HIGHWAY NO. 8,NB,Discontinued,47.19083,-65.3975,1978,1992,316,,N,Flow,Continuous,N,N,N,ASSUMED DATUM,DARTMOUTH,,N,25.4902324677
01BOG01,MIRAMICHI GROUNDWATER AT MIRAMICHI AIRPORT,NB,Active,47.00889,-65.46472,1978,2018,,,,Level,Continuous,N,N,Y,GEODETIC SURVEY OF CANADA DATUM,DARTMOUTH,,N,31
01BP001,LITTLE SOUTHWEST MIRAMICHI RIVER AT LYTTLETON,NB,Active,46.93597,-65.90739,1952,2018,1340,,N,Flow and Level,Continuous,Y,Y,Y,ASSUMED DATUM,DARTMOUTH,,N,10.9755020142
01BP002,CATAMARAN BROOK AT REPAP ROAD BRIDGE,NB,Active,46.85656,-66.19011,1989,2018,28.7,,N,Flow and Level,Continuous,N,N,Y,ASSUMED DATUM,DARTMOUTH,,N,156.0830230713
01BQ001,NORTHWEST MIRAMICHI RIVER AT TROUT BROOK,NB,Active,47.09475,-65.8365,1962,2018,948,,N,Flow and Level,Continuous,Y,Y,Y,ASSUMED DATUM,DARTMOUTH,,N,18.1797332764
01BQ002,LITTLE SOUTH BRANCH TOMOGONOPS RIVER AT FRESH WATER POND,NB,Discontinued,47.29528,-66.065,1967,1993,,,R,Flow,Continuous,N,N,N,ASSUMED DATUM,DARTMOUTH,,N,316.5440063477
01BQ003,LITTLE SOUTH BRANCH TOMOGONOPS RIVER BELOW B PIT,NB,Discontinued,47.29111,-66.04278,1969,1992,,,R,Flow,Continuous,N,N,N,ASSUMED DATUM,DARTMOUTH,,N,291.0289001465
01BQ004,SOUTH BRANCH TOMOGONOPS RIVER AT TAILINGS POND SITE NO. 1,NB,Discontinued,47.27667,-66.06167,1976,1977,,,R,Level,Seasonal,N,N,N,ASSUMED DATUM,DARTMOUTH,,N,340
01BQ005,SOUTH BRANCH TOMOGONOPS RIVER AT TAILINGS POND SITE NO. 2,NB,Discontinued,47.26806,-66.07222,1967,1969,,,R,Level,Continuous,N,N,N,ASSUMED DATUM,DARTMOUTH,,N,324.1715393066
01BQ006,SOUTH BRANCH TOMOGONOPS RIVER NEAR HEATH STEEL MINES,NB,Discontinued,47.25472,-65.96722,1969,1992,,,R,Flow,Continuous,N,N,N,ASSUMED DATUM,DARTMOUTH,,N,189.6053161621
01BQ007,TOMOGONOPS RIVER AT THE MOUTH,NB,Discontinued,47.23306,-65.83611,1972,1979,158,,R,Flow,Continuous,N,N,N,ASSUMED DATUM,DARTMOUTH,,N,60.5840606689
01BQ008,TOMOGONOPS RIVER AT TAILINGS POND SITE NO. 3,NB,Discontinued,47.27139,-66.06583,1971,1972,,,R,Flow,Continuous,N,N,N,ASSUMED DATUM,DARTMOUTH,,N,325.8057861328
01BR001,KOUCHIBOUGUAC RIVER NEAR VAUTOUR,NB,Discontinued,46.74333,-65.20472,1930,1995,177,,N,Flow,Continuous,N,N,N,ASSUMED DATUM,DARTMOUTH,,N,30.0157585144
01BS001,COAL BRANCH RIVER AT BEERSVILLE,NB,Active,46.44394,-65.06494,1964,2018,166,,N,Flow and Level,Continuous,Y,Y,Y,ASSUMED DATUM,DARTMOUTH,,N,14
01BSG04,FORD BANK GROUNDWATER AT FORD BANK,NB,Active,46.49278,-64.99694,2003,2018,,,,Level,Continuous,N,N,Y,ASSUMED DATUM,DARTMOUTH,,N,34.0737838745
01BT001,KINNEAR RIVER NEAR HAUTE-ABOUJAGANE,NB,Discontinued,46.15278,-64.385,1985,1993,32.1,,N,Flow,Continuous,N,N,N,ASSUMED DATUM,DARTMOUTH,,N,38.2651672363
01BTG02,POINT DE BUTE GROUNDWATER AT POINT DE BUTE,NB,Active,45.92722,-64.22111,2003,2018,,,,Level,Continuous,N,N,Y,ASSUMED DATUM,DARTMOUTH,,N,26.5866107941
01BU001,PETITCODIAC RIVER NEAR SALISBURY,NB,Discontinued,46.01667,-65.06667,1928,1929,746,,N,Flow,Seasonal,N,N,N,,DARTMOUTH,,N,19.1270675659
01BU002,PETITCODIAC RIVER NEAR PETITCODIAC,NB,Active,45.94639,-65.16819,1961,2018,391,,N,Flow and Level,Continuous,Y,Y,Y,ASSUMED DATUM,DARTMOUTH,,N,24
01BU003,TURTLE CREEK AT TURTLE CREEK,NB,Discontinued,45.9595,-64.878,1962,2010,129,,N,Flow,Continuous,N,N,N,ASSUMED DATUM,DARTMOUTH,,N,57.2767677307
01BU004,PALMERS CREEK NEAR DORCHESTER,NB,Discontinued,45.88722,-64.51639,1966,1985,34.2,,N,Flow,Continuous,Y,N,N,ASSUMED DATUM,DARTMOUTH,,N,11.9319047928
01BU005,HAYWARD BROOK SITE NO. 1 NEAR PETITCODIAC,NB,Discontinued,45.86528,-65.15806,1993,1998,4.3,,N,Flow,Continuous,Y,N,N,ASSUMED DATUM,DARTMOUTH,,N,133
01BU006,HAYWARD BROOK SITE NO. 4 NEAR PETITCODIAC,NB,Discontinued,45.87806,-65.18056,1993,1998,1.37,,N,Flow,Continuous,Y,N,N,ASSUMED DATUM,DARTMOUTH,,N,72.3330612183
01BU007,HAYWARD BROOK SITE NO. 5 NEAR PETITCODIAC,NB,Discontinued,45.87139,-65.185,1993,2001,6.49,,N,Flow,Continuous,Y,N,N,ASSUMED DATUM,DARTMOUTH,,N,70
01BU008,HAYWARD BROOK SITE NO. 6 NEAR PETITCODIAC,NB,Discontinued,45.87306,-65.18778,1993,2001,2.34,,N,Flow,Continuous,Y,N,N,ASSUMED DATUM,DARTMOUTH,,N,69
01BU009,HOLMES BROOK SITE NO. 9 NEAR PETITCODIAC,NB,Active,45.88786,-65.14678,1995,2018,6.2,,N,Flow and Level,Continuous,N,N,Y,ASSUMED DATUM,DARTMOUTH,,N,86.2608413696
01BU010,PETITCODIAC RIVER BELOW CAUSEWAY,NB,Discontinued,46.06528,-64.80694,1999,2016,,,R,Level,Continuous,N,N,N,GEODETIC SURVEY OF CANADA DATUM,DARTMOUTH,,N,3
01BU011,PETITCODIAC RIVER ABOVE CAUSEWAY,NB,Discontinued,46.06533,-64.80694,1999,2016,,,R,Level,Continuous,N,N,N,GEODETIC SURVEY OF CANADA DATUM,DARTMOUTH,,N,3
01BU012,PETITCODIAC RIVER ABOVE HALLS CREEK,NB,Discontinued,46.0925,-64.76444,1999,2004,,,R,Level,Continuous,N,N,N,GEODETIC SURVEY OF CANADA DATUM,DARTMOUTH,,N,0
01BU013,PETITCODIAC RIVER ABOVE TURTLE CREEK,NB,Discontinued,46.04806,-64.89611,1999,2004,,,R,Level,Continuous,N,N,N,GEODETIC SURVEY OF CANADA DATUM,DARTMOUTH,,N,7.2255291939
01BU014,PETITCODIAC RIVER AT DOVER,NB,Discontinued,45.99,-64.68333,2003,2004,,,R,Level,Continuous,N,N,N,GEODETIC SURVEY OF CANADA DATUM,DARTMOUTH,,N,7.4476852417
01BU015,PETITCODIAC RIVER NEAR BEAUMONT,NB,Discontinued,45.87139,-64.56639,2003,2004,,,R,Level,Continuous,N,N,N,GEODETIC SURVEY OF CANADA DATUM,DARTMOUTH,,N,19.4156036377
01BV001,MISPEC STREAM AT BLACK RIVER ROAD CROSSING,NB,Discontinued,45.27028,-65.89528,1918,1920,137,,N,Flow,Seasonal,N,N,N,,DARTMOUTH,,N,79.0394515991
01BV002,KINNIE BROOK AT FUNDY NATIONAL PARK,NB,Discontinued,45.61167,-64.96333,1957,1958,6.48,,N,Flow,Continuous,N,N,N,ASSUMED DATUM,DARTMOUTH,,N,156.7851715088
01BV003,UPPER SALMON RIVER AT ALMA,NB,Discontinued,45.61,-64.95833,1957,1958,181,,N,Flow,Seasonal,N,N,N,ASSUMED DATUM,DARTMOUTH,,N,13.6224708557
01BV004,BLACK RIVER AT GARNET SETTLEMENT,NB,Active,45.30658,-65.84922,1960,2018,40.4,,N,Flow and Level,Continuous,N,N,Y,ASSUMED DATUM,DARTMOUTH,,N,80.4863510132
01BV005,RATCLIFFE BROOK BELOW OTTER LAKE,NB,Discontinued,45.36778,-65.81167,1960,1971,29.3,,N,Flow,Continuous,N,N,N,ASSUMED DATUM,DARTMOUTH,,N,118.4444885254
01BV006,POINT WOLFE RIVER AT FUNDY NATIONAL PARK,NB,Active,45.55856,-65.01597,1964,2018,130,,N,Flow and Level,Continuous,N,Y,Y,ASSUMED DATUM,DARTMOUTH,,N,45.4798698425
01BV007,UPPER SALMON RIVER NEAR ALMA,NB,Discontinued,45.61111,-64.95611,1967,1979,181,,N,Flow,Continuous,N,N,N,ASSUMED DATUM,DARTMOUTH,,N,77.8516769409
01BV008,BIG SALMON RIVER NEAR ST. MARTINS,NB,Discontinued,45.42417,-65.41167,1971,1979,287,,N,Flow,Continuous,N,N,N,ASSUMED DATUM,DARTMOUTH,,N,5.1871986389
01BV009,IMPOUNDMENT B AT NEW HORTON,NB,Discontinued,45.6975,-64.69472,1991,1994,0.5,,,Flow,Continuous,N,N,N,ASSUMED DATUM,DARTMOUTH,,N,4.6222586632
01BV010,DICKSON BROOK AT FUNDY NATIONAL PARK,NB,Discontinued,45.59142,-64.95706,2006,2010,8.81,8.81,N,Flow,Continuous,N,N,N,GEODETIC SURVEY OF CANADA DATUM,DARTMOUTH,,N,18.3844108582
01CA001,CARRUTHERS BROOK NEAR HOWLAN,PE,Discontinued,46.73528,-64.225,1919,1922,38.8,,R,Flow,Continuous,N,N,N,ASSUMED DATUM,DARTMOUTH,,N,18.7386741638
01CA002,TROUT RIVER NEAR TYNE VALLEY,PE,Discontinued,46.56333,-63.94,1919,1922,22.1,,N,Flow,Continuous,N,N,N,ASSUMED DATUM,DARTMOUTH,,N,10
01CA003,CARRUTHERS BROOK NEAR ST. ANTHONY,PE,Active,46.74411,-64.187,1961,2018,46.8,,N,Flow and Level,Continuous,N,Y,Y,ASSUMED DATUM,DARTMOUTH,,N,8
01CA004,SMELT CREEK NEAR ELLERSLIE,PE,Discontinued,46.60167,-63.93722,1967,1979,17.3,,N,Flow,Continuous,Y,N,N,ASSUMED DATUM,DARTMOUTH,,N,4.1220979691
01CA005,MIMINEGASH RIVER AT ST. LAWRENCE,PE,Discontinued,46.84833,-64.19778,1991,1993,31.8,,,Flow,Continuous,N,N,N,ASSUMED DATUM,DARTMOUTH,,N,23.0527324677
01CB001,DUNK RIVER AT ROGERS MILL,PE,Discontinued,46.34222,-63.61111,1919,1933,98.6,,R,Flow,Continuous,N,N,N,ASSUMED DATUM,DARTMOUTH,,N,16
01CB002,DUNK RIVER AT WALL ROAD,PE,Active,46.34586,-63.63333,1961,2018,114,,R,Flow and Level,Continuous,Y,N,Y,ASSUMED DATUM,DARTMOUTH,,N,10.2174081802
01CB003,PLAT RIVER AT SHERBROOKE,PE,Discontinued,46.42333,-63.77722,1970,1982,4.51,,R,Flow,Continuous,N,N,N,ASSUMED DATUM,DARTMOUTH,,N,4
01CB004,WILMOT RIVER NEAR WILMOT VALLEY,PE,Active,46.39331,-63.65939,1972,2018,45.4,,R,Flow and Level,Continuous,Y,Y,Y,ASSUMED DATUM,DARTMOUTH,,N,8
01CB005,NORTH BROOK NEAR WALL ROAD,PE,Discontinued,46.34694,-63.63278,1971,1987,12.9,,N,Flow,Continuous,Y,N,N,ASSUMED DATUM,DARTMOUTH,,N,11.4006414413
01CB006,EMERALD BROOK NEAR EMERALD,PE,Discontinued,46.35944,-63.55806,1974,1992,5.59,,N,Flow,Continuous,Y,N,N,ASSUMED DATUM,DARTMOUTH,,N,25.4867916107
01CB007,EAST BRANCH DUNK RIVER AT ELLIOTT,PE,Discontinued,46.36306,-63.46333,1974,1975,10.7,,N,Flow,Seasonal,Y,N,N,ASSUMED DATUM,DARTMOUTH,,N,49.59998703
01CB008,DUNK RIVER NEAR BREADALBANE,PE,Discontinued,46.35167,-63.48833,1974,1975,19.8,,N,Flow,Seasonal,Y,N,N,ASSUMED DATUM,DARTMOUTH,,N,38.6715660095
01CB009,DUNK RIVER AT MCKENNA'S BRIDGE,PE,Discontinued,46.3525,-63.54222,1974,1975,53.1,,N,Flow,Seasonal,Y,N,N,ASSUMED DATUM,DARTMOUTH,,N,29.116443634
01CB010,DAMES BROOK NEAR NEWTON,PE,Discontinued,46.34694,-63.55528,1974,1975,16.2,,N,Flow,Seasonal,Y,N,N,ASSUMED DATUM,DARTMOUTH,,N,33.846244812
01CB011,DUNK RIVER ABOVE SCALES POND,PE,Discontinued,46.34861,-63.57778,1974,1974,80.6,,N,Level,Seasonal,Y,N,N,ASSUMED DATUM,DARTMOUTH,,N,23.6465110779
01CB012,ELMO RIVER NEAR SCALES POND,PE,Discontinued,46.33861,-63.59778,1974,1975,7.9,,N,Flow,Seasonal,Y,N,N,ASSUMED DATUM,DARTMOUTH,,N,26.9524555206
01CB013,DUNK RIVER BELOW SCALES POND,PE,Discontinued,46.34333,-63.61111,1974,1974,98.6,,R,Flow,Seasonal,Y,N,N,ASSUMED DATUM,DARTMOUTH,,N,18.2664794922
01CB014,SOUTHWEST BROOK NEAR MIDDLETON,PE,Discontinued,46.33472,-63.63417,1974,1975,23.4,,N,Flow,Seasonal,Y,N,N,ASSUMED DATUM,DARTMOUTH,,N,16.5367641449
01CB015,CAPE TRAVERSE RIVER AT CARLETON,PE,Discontinued,46.25667,-63.65556,1991,1992,6.89,,,Flow,Continuous,N,N,N,,DARTMOUTH,,N,12
01CB016,BARBARA WEIT RIVER AT ROUTE 110,PE,Discontinued,46.41906,-63.66711,1993,2016,7.64,,N,Flow,Miscellaneous,N,N,N,ASSUMED DATUM,DARTMOUTH,,N,8
01CB017,BARBARA WEIT RIVER AT ROUTE 2,PE,Discontinued,46.42456,-63.67714,1993,2016,6.55,,N,Flow,Miscellaneous,N,N,N,ASSUMED DATUM,DARTMOUTH,,N,5.0761890411
01CB018,BARBARA WEIT STREAM AT CAVENDISH FARM,PE,Active,46.4275,-63.68042,2017,2018,,,,,Continuous,N,N,Y,ASSUMED DATUM,DARTMOUTH,,N,2.0700213909
01CC001,HUNTER RIVER AT HUNTER RIVER,PE,Discontinued,46.35972,-63.34583,1919,1922,41.5,,R,Flow,Continuous,N,N,N,ASSUMED DATUM,DARTMOUTH,,N,15.0568962097
01CC002,WINTER RIVER NEAR SUFFOLK,PE,Active,46.33206,-63.06547,1967,2018,37.5,,R,Flow and Level,Continuous,N,N,Y,ASSUMED DATUM,DARTMOUTH,,N,16
01CC003,WINTER RIVER AT BRACKLEY WELLS PUMPING STATION,PE,Discontinued,46.315,-63.14667,1968,1990,4.92,,R,Flow,Continuous,N,N,N,ASSUMED DATUM,DARTMOUTH,,N,28
01CC004,WRIGHTS CREEK NEAR AVONLEA ROAD,PE,Discontinued,46.27583,-63.11194,1976,1979,2.41,,N,Flow,Continuous,N,N,N,ASSUMED DATUM,DARTMOUTH,,N,8
01CC005,WEST RIVER AT RIVERDALE,PE,Active,46.23139,-63.35108,1989,2018,70.1,,N,Flow and Level,Continuous,Y,N,Y,ASSUMED DATUM,DARTMOUTH,,N,7.3666701317
01CC006,CLYDE RIVER NEAR CLYDE RIVER,PE,Discontinued,46.23556,-63.26083,1986,1995,26.8,,N,Flow,Miscellaneous,N,N,N,,DARTMOUTH,,N,13.0535173416
01CC007,CLARKS CREEK AT AUGUSTUS,PE,Discontinued,46.32028,-62.88389,1990,1991,39.8,,,Flow,Seasonal,N,N,N,,DARTMOUTH,,N,13.0396175385
01CC008,GLEN FINNAN RIVER AT TARANTUM,PE,Discontinued,46.2875,-62.95194,1990,1991,24,,,Flow,Seasonal,N,N,N,,DARTMOUTH,,N,8.5154399872
01CC009,HORNES CREEK AT MARSHFIELD,PE,Discontinued,46.29722,-63.07806,1990,1991,5.9,,,Flow,Seasonal,N,N,N,,DARTMOUTH,,N,10.186674118
01CC010,WINTER RIVER AT UNION,PE,Active,46.31481,-63.12336,1992,2018,16.8,,R,Flow and Level,Continuous,N,N,Y,ASSUMED DATUM,DARTMOUTH,,N,27
01CC011,COLES CREEK AT MILTONVALE PUMPING STATION,PE,Active,46.31025,-63.19489,2015,2018,,,N,,Continuous,N,N,Y,ASSUMED DATUM,DARTMOUTH,,N,14
01CCG07,BRACKLEY GROUND WATER AT 750 BRACKLEY POINT ROAD,PE,Active,46.3145,-63.14897,1996,2018,,,,Level,Continuous,N,N,N,GEODETIC SURVEY OF CANADA DATUM,DARTMOUTH,,N,29
01CD001,MORELL RIVER AT MORELL,PE,Discontinued,46.32833,-62.69917,1919,1921,133,,R,Flow,Seasonal,N,N,N,ASSUMED DATUM,DARTMOUTH,,N,5.138232708
01CD002,MORELL RIVER AT PEAKES ROAD,PE,Discontinued,46.3175,-62.69944,1961,1995,129,,R,Flow,Continuous,N,N,N,ASSUMED DATUM,DARTMOUTH,,N,11.4239912033
01CD003,MORELL RIVER AT BANGOR,PE,Discontinued,46.36111,-62.70056,1964,1992,147,,R,Flow,Continuous,N,N,N,ASSUMED DATUM,DARTMOUTH,,N,3.0404407978
01CD004,BOUGHTON RIVER NEAR UPTON,PE,Discontinued,46.34194,-62.53139,1988,1989,22.9,,N,Flow,Miscellaneous,N,N,N,ASSUMED DATUM,DARTMOUTH,,N,14.4739761353
01CD005,BEAR RIVER AT ST. MARGARETS,PE,Active,46.45314,-62.38233,1993,2018,14.8,,N,Flow and Level,Continuous,N,N,Y,ASSUMED DATUM,DARTMOUTH,,N,11.348072052
01CE001,VERNON RIVER AT GLENCO ROAD CROSSING,PE,Discontinued,46.19944,-62.82333,1919,1933,16.8,,N,Flow,Continuous,N,N,N,ASSUMED DATUM,DARTMOUTH,,N,11.8966903687
01CE002,MONTAGUE RIVER (NORTH BRANCH) ABOVE MONTAGUE POWERHOUSE,PE,Discontinued,46.14944,-62.69722,1919,1933,49.6,,R,Flow,Continuous,N,N,N,ASSUMED DATUM,DARTMOUTH,,N,10.5098628998
01CE003,BRUDENELL RIVER NEAR BRUDENELL,PE,Discontinued,46.20056,-62.64944,1965,1979,36,,N,Flow,Continuous,Y,N,N,ASSUMED DATUM,DARTMOUTH,,N,3.6710827351
01CE004,BRUDENELL RIVER AT BRUDENELL,PE,Discontinued,46.20194,-62.65639,1979,1995,33.1,,N,Flow,Continuous,Y,N,N,ASSUMED DATUM,DARTMOUTH,,N,5.1920142174
01CE005,MONTAGUE RIVER NEAR HEAD OF MONTAGUE,PE,Discontinued,46.15528,-62.72611,1987,1995,44.4,,N,Flow,Miscellaneous,N,N,N,ASSUMED DATUM,DARTMOUTH,,N,24.0066814423
01CE006,CARDIGAN RIVER ABOVE CARDIGAN,PE,Discontinued,46.23833,-62.65639,1988,1989,21.4,,N,Flow,Miscellaneous,N,N,N,ASSUMED DATUM,DARTMOUTH,,N,31.2048988342
01DA001,METEGHAN RIVER NEAR METEGHAN RIVER,NS,Discontinued,44.21611,-66.11722,1964,1999,167,,R,Flow,Continuous,N,N,N,ASSUMED DATUM,DARTMOUTH,,N,13.4902257919
01DB001,SISSIBOO RIVER NEAR WEYMOUTH,NS,Discontinued,44.41972,-65.90694,1915,1916,596,,R,Flow,Seasonal,N,N,N,ASSUMED DATUM,DARTMOUTH,,N,45.5310707092
01DB002,BEAR RIVER EAST BRANCH AT BEAR RIVER,NS,Discontinued,44.56667,-65.63333,1916,1951,193,,N,Flow,Continuous,N,N,N,ASSUMED DATUM,DARTMOUTH,,N,15.8591003418
01DC001,ALLAIN RIVER AT LEQUILLE,NS,Discontinued,44.72361,-65.4925,1918,1919,148,,R,Flow,Continuous,N,N,N,ASSUMED DATUM,DARTMOUTH,,N,31.1951217651
01DC002,NICTAUX RIVER AT NICTAUX FALLS,NS,Discontinued,44.90917,-65.03056,1918,1920,298,,R,Flow,Continuous,N,N,N,ASSUMED DATUM,DARTMOUTH,,N,33.5924491882
01DC003,PARADISE BROOK NEAR PARADISE,NS,Discontinued,44.84333,-65.18556,1917,1949,107,,N,Flow,Continuous,N,N,N,ASSUMED DATUM,DARTMOUTH,,N,69.5034866333
01DC005,ANNAPOLIS RIVER AT WILMOT,NS,Active,44.94919,-65.02939,1963,2018,546,,R,Flow and Level,Continuous,Y,N,Y,ASSUMED DATUM,DARTMOUTH,,N,14
01DC006,SOUTH ANNAPOLIS RIVER AT MILLVILLE,NS,Discontinued,45.00167,-64.82389,1965,1979,119,,R,Flow,Continuous,N,N,N,ASSUMED DATUM,DARTMOUTH,,N,27
01DC007,ANNAPOLIS RIVER AT LAWRENCETOWN,NS,Active,44.88083,-65.15792,1983,2018,1020,,R,Flow and Level,Continuous,N,N,Y,ASSUMED DATUM,DARTMOUTH,,N,9.2155666351
01DD001,GASPEREAU RIVER AT MARTIN'S BRIDGE,NS,Discontinued,45.05972,-64.38194,1915,1920,486,,R,Flow,Continuous,N,N,N,ASSUMED DATUM,DARTMOUTH,,N,25.1201057434
01DD002,CORNWALLIS RIVER AT CAMBRIDGE STATION,NS,Active,45.06478,-64.63533,2000,2018,90.8,,N,Flow and Level,Continuous,N,N,Y,ASSUMED DATUM,DARTMOUTH,,N,14.5739574432
01DD003,GASPEREAU RIVER AT MILLRACE DIVERSION,NS,Discontinued,45.05972,-64.38194,1915,1920,370,,R,Flow,Continuous,N,N,N,ASSUMED DATUM,DARTMOUTH,,N,25.1201057434
01DD004,SHARPE BROOK AT LLOYDS,NS,Discontinued,45.025,-64.63722,1966,1995,8.81,,N,Flow,Continuous,Y,N,N,ASSUMED DATUM,DARTMOUTH,,N,111.4622116089
01DD005,NORTH BROOK AT SHEFFIELD MILLS,NS,Active,45.15056,-64.475,2000,2018,15.7,,N,Flow and Level,Continuous,N,N,Y,ASSUMED DATUM,DARTMOUTH,,N,7.241528511
01DE002,ST. CROIX RIVER AT HARTVILLE,NS,Discontinued,44.95167,-64.02778,1915,1934,287,,R,Flow,Continuous,N,N,N,ASSUMED DATUM,DARTMOUTH,,N,34.0833930969
01DF001,KENNETCOOK RIVER AT KENNETCOOK,NS,Discontinued,45.17583,-63.72306,1975,1975,179,,N,Flow,Seasonal,N,N,N,ASSUMED DATUM,DARTMOUTH,,N,27
01DG001,STEWIACKE RIVER NEAR UPPER STEWIACKE,NS,Discontinued,45.21528,-62.99722,1917,1926,420,,R,Flow,Continuous,N,N,N,ASSUMED DATUM,DARTMOUTH,,N,22
01DG002,FALL RIVER AT WAVERLEY,NS,Discontinued,44.80667,-63.60833,1915,1921,46.4,,R,Flow,Seasonal,N,N,N,ASSUMED DATUM,DARTMOUTH,,N,19.7999992371
01DG003,BEAVERBANK RIVER NEAR KINSAC,NS,Active,44.85111,-63.66389,1921,2018,96.9,,N,Flow and Level,Continuous,N,Y,Y,ASSUMED DATUM,DARTMOUTH,,N,46.0162162781
01DG004,BENNERY BROOK NEAR BENNERY LAKE,NS,Discontinued,44.90194,-63.55361,1959,1960,7.51,,N,Flow,Miscellaneous,N,N,N,ASSUMED DATUM,DARTMOUTH,,N,60
01DG005,STEWIACKE RIVER AT UPPER STEWIACKE,NS,Discontinued,45.22333,-62.99083,1964,1964,401,,N,Flow,Miscellaneous,N,N,N,ASSUMED DATUM,DARTMOUTH,,N,26.9915447235
01DG006,SHUBENACADIE RIVER AT ENFIELD,NS,Discontinued,44.93194,-63.53444,1964,2010,389,,N,Flow,Miscellaneous,N,N,N,ASSUMED DATUM,DARTMOUTH,,N,11.5464935303
01DG007,SHUBENACADIE RIVER AT LAKE THOMAS,NS,Discontinued,44.81806,-63.61361,1974,1984,130,,N,Flow,Miscellaneous,N,N,N,ASSUMED DATUM,DARTMOUTH,,N,21.8489131927
01DG017,POWDER MILL LAKE BROOK NEAR WAVERLEY,NS,Discontinued,44.7725,-63.60722,1983,1984,26.7,,N,Flow,Miscellaneous,N,N,N,ASSUMED DATUM,DARTMOUTH,,N,30.271068573
01DG018,PEMBROKE RIVER AT GLENBERVIE,NS,Discontinued,45.265,-62.94139,1978,1990,73.3,,N,Flow,Continuous,Y,N,N,ASSUMED DATUM,DARTMOUTH,,N,54
01DG019,BLACK BROOK AT OLDHAM,NS,Discontinued,44.91722,-63.49417,1978,1978,6.22,,N,Flow,Seasonal,N,N,N,ASSUMED DATUM,DARTMOUTH,,N,101.2432785034
01DG020,BENNERY BROOK SITE NO. 1,NS,Discontinued,44.92833,-63.53667,1978,1978,28,,N,Flow,Seasonal,N,N,N,ASSUMED DATUM,DARTMOUTH,,N,16.4907588959
01DG021,BENNERY BROOK SITE NO. 2,NS,Discontinued,44.91694,-63.53806,1978,1978,0.23,,N,Flow,Seasonal,N,N,N,ASSUMED DATUM,DARTMOUTH,,N,16.0647640228
01DG022,BENNERY BROOK SITE NO. 3,NS,Discontinued,44.91611,-63.54111,1978,1978,1.35,,N,Flow,Seasonal,N,N,N,ASSUMED DATUM,DARTMOUTH,,N,17.6441078186
01DG023,BENNERY BROOK SITE NO. 4,NS,Discontinued,44.90944,-63.53889,1978,1978,7.77,,N,Flow,Seasonal,N,N,N,ASSUMED DATUM,DARTMOUTH,,N,45.763092041
01DG024,BENNERY BROOK SITE NO. 6,NS,Discontinued,44.90944,-63.53806,1978,1978,14.5,,N,Flow,Seasonal,N,N,N,ASSUMED DATUM,DARTMOUTH,,N,45.535243988
01DG025,BENNERY BROOK SITE NO. 5,NS,Discontinued,44.90917,-63.53778,1978,1978,2.85,,N,Flow,Seasonal,N,N,N,ASSUMED DATUM,DARTMOUTH,,N,41.6469306946
01DG026,BENNERY BROOK SITE NO. 7,NS,Discontinued,44.90639,-63.5325,1978,1978,8.55,,N,Flow,Seasonal,N,N,N,ASSUMED DATUM,DARTMOUTH,,N,52.0181694031
01DG027,BENNERY BROOK SITE NO. 8,NS,Discontinued,44.90278,-63.53167,1978,1978,5.7,,N,Flow,Seasonal,N,N,N,ASSUMED DATUM,DARTMOUTH,,N,73.4231567383
01DG028,BENNERY BROOK SITE NO. 9,NS,Discontinued,44.89833,-63.52917,1978,1978,2.33,,N,Flow,Seasonal,N,N,N,ASSUMED DATUM,DARTMOUTH,,N,81.2481460571
01DG029,BENNERY BROOK SITE NO. 10,NS,Discontinued,44.89306,-63.52722,1978,1978,2.59,,N,Flow,Seasonal,N,N,N,ASSUMED DATUM,DARTMOUTH,,N,92.8042907715
01DG030,BENNERY BROOK SITE NO. 11,NS,Discontinued,44.885,-63.5325,1978,1978,0.49,,N,Flow,Seasonal,N,N,N,ASSUMED DATUM,DARTMOUTH,,N,107.3298416138
01DG031,BENNERY BROOK SITE NO. 14,NS,Discontinued,44.88611,-63.51972,1978,1978,1.06,,N,Flow,Seasonal,N,N,N,ASSUMED DATUM,DARTMOUTH,,N,124.1061477661
01DG032,BENNERY BROOK SITE NO. 12,NS,Discontinued,44.88278,-63.53,1978,1978,0.34,,N,Flow,Seasonal,N,N,N,ASSUMED DATUM,DARTMOUTH,,N,122.6352310181
01DG033,BENNERY BROOK SITE NO. 15,NS,Discontinued,44.87917,-63.52528,1978,1978,0.36,,N,Flow,Seasonal,N,N,N,ASSUMED DATUM,DARTMOUTH,,N,133.6832580566
01DG035,SHUBENACADIE RIVER AT OUTLET LAKE WILLIAM,NS,Discontinued,44.785,-63.58417,1974,1984,76.1,,N,Flow,Miscellaneous,N,N,N,ASSUMED DATUM,DARTMOUTH,,N,69.6288146973
01DG041,MUDDY POND BROOK AT WAVERLEY,NS,Discontinued,44.78917,-63.61,1983,1984,2.58,,N,Flow,Miscellaneous,N,N,N,ASSUMED DATUM,DARTMOUTH,,N,25.338552475
01DG042,SHUBENACADIE RIVER AT WELLINGTON STATION,NS,Discontinued,44.86167,-63.62222,1984,1984,123,,,,Seasonal,N,N,N,,DARTMOUTH,,N,19.6646938324
01DG043,ST ANDREWS RIVER AT STEWIACKE,NS,Active,45.12306,-63.34975,2011,2018,98.2,,N,,Continuous,N,N,Y,ASSUMED DATUM,DARTMOUTH,,N,39.9154777527
01DH001,SALMON RIVER AT VALLEY,NS,Discontinued,45.38333,-63.19694,1917,1982,316,,N,Flow,Seasonal,N,N,N,ASSUMED DATUM,DARTMOUTH,,N,31.9408988953
01DH002,SALMON RIVER AT MURRAY,NS,Active,45.36917,-63.21544,1964,2018,363,,N,Flow and Level,Continuous,Y,N,Y,ASSUMED DATUM,DARTMOUTH,,N,29.1591300964
01DH003,FRASER BROOK NEAR ARCHIBALD,NS,Discontinued,45.34306,-63.16806,1965,1990,10.1,,N,Flow,Continuous,Y,N,N,ASSUMED DATUM,DARTMOUTH,,N,113.6204605103
01DH004,NORTH RIVER AT NORTH RIVER,NS,Active,45.42556,-63.25472,1976,2018,202,,N,Flow and Level,Continuous,Y,N,Y,ASSUMED DATUM,DARTMOUTH,,N,30
01DH005,SALMON RIVER AT UNION,NS,Discontinued,45.39833,-63.12306,1977,1999,287,,N,Flow,Continuous,N,N,N,ASSUMED DATUM,DARTMOUTH,,N,58.1662139893
01DH006,MCCLURES BROOK AT COBEQUID TRAIL,NS,Active,45.35883,-63.29589,2016,2018,,,N,,Continuous,N,N,Y,,DARTMOUTH,,N,14
01DJ001,GREAT VILLAGE RIVER NEAR GREAT VILLAGE,NS,Discontinued,45.43889,-63.59806,1920,1926,93.8,,N,Flow,Continuous,N,N,N,ASSUMED DATUM,DARTMOUTH,,N,26
01DJ003,ECONOMY RIVER NEAR ECONOMY,NS,Discontinued,45.41472,-63.9025,1923,1927,130,,N,Flow,Continuous,N,N,N,ASSUMED DATUM,DARTMOUTH,,N,22.9964771271
01DJ004,FIVE ISLANDS RIVER NEAR BRITISH LAKE,NS,Discontinued,45.53556,-64.01528,1978,1979,8.81,,N,Flow,Continuous,N,N,N,ASSUMED DATUM,DARTMOUTH,,N,253
01DJ005,GREAT VILLAGE RIVER NEAR SCRABBLE HILL,NS,Active,45.43822,-63.598,1993,2018,89,,N,Flow and Level,Continuous,Y,N,Y,ASSUMED DATUM,DARTMOUTH,,N,27
01DL001,KELLEY RIVER (MILL CREEK) AT EIGHT MILE FORD,NS,Active,45.58681,-64.45069,1969,2018,63.2,,N,Flow and Level,Continuous,Y,Y,Y,ASSUMED DATUM,DARTMOUTH,,N,43.4817619324
01DL002,MACCAN RIVER AT EAST SOUTHAMPTON,NS,Discontinued,45.59111,-64.20278,1977,1979,98.4,,N,Flow,Continuous,N,N,N,ASSUMED DATUM,DARTMOUTH,,N,37.8360099792
01DN001,RIVER PHILIP AT OXFORD ELECTRIC LIGHT PLANT,NS,Discontinued,45.70361,-63.87611,1915,1916,370,,R,Flow,Seasonal,N,N,N,ASSUMED DATUM,DARTMOUTH,,N,12
01DN002,RIVER PHILIP NEAR RIVER PHILIP POST OFFICE,NS,Discontinued,45.67083,-63.89667,1921,1923,228,,N,Flow,Continuous,N,N,N,ASSUMED DATUM,DARTMOUTH,,N,20.8787269592
01DN003,WALLACE RIVER AT HOWARD'S MILL,NS,Discontinued,45.75139,-63.56722,1923,1933,394,,N,Flow,Continuous,N,N,N,ASSUMED DATUM,DARTMOUTH,,N,21.8959922791
01DN004,WALLACE RIVER AT WENTWORTH CENTRE,NS,Discontinued,45.67833,-63.55972,1964,1999,298,,N,Flow,Continuous,Y,N,N,ASSUMED DATUM,DARTMOUTH,,N,26.649274826
01DN005,WALLACE RIVER AT WENTWORTH,NS,Discontinued,45.66417,-63.55639,1977,1979,114,,N,Flow,Continuous,N,N,N,ASSUMED DATUM,DARTMOUTH,,N,39.7359924316
01DN006,ROARING RIVER AT WESTCHESTER STATION,NS,Discontinued,45.61861,-63.66417,1977,1979,43,,N,Flow,Continuous,N,N,N,ASSUMED DATUM,DARTMOUTH,,N,89.5543746948
01DN007,RIVER PHILIP AT COLLINGWOOD CORNER,NS,Discontinued,45.6075,-63.93361,1977,1979,105,,N,Flow,Continuous,N,N,N,ASSUMED DATUM,DARTMOUTH,,N,47.3131828308
01DN008,WEST RIVER PHILIP AT COLLINGWOOD CORNER,NS,Discontinued,45.60667,-63.93417,1977,1979,46.9,,N,Flow,Continuous,N,N,N,ASSUMED DATUM,DARTMOUTH,,N,48
01DO001,RIVER JOHN AT WELSFORD,NS,Discontinued,45.72833,-63.0525,1965,1995,249,,N,Flow,Continuous,N,N,N,ASSUMED DATUM,DARTMOUTH,,N,8.6048994064
01DP001,EAST RIVER (PICTOU) EAST BRANCH AT EUREKA,NS,Discontinued,45.50361,-62.67694,1915,1915,246,,R,Flow,Seasonal,N,N,N,ASSUMED DATUM,DARTMOUTH,,N,28.2673873901
01DP002,EAST RIVER (PICTOU) WEST BRANCH AT EUREKA,NS,Discontinued,45.49806,-62.68278,1915,1916,140,,R,Flow,Seasonal,N,N,N,ASSUMED DATUM,DARTMOUTH,,N,34.0488433838
01DP003,EAST RIVER AT STELLARTON,NS,Discontinued,45.54861,-62.66194,1964,1965,404,,N,Flow,Seasonal,N,N,N,ASSUMED DATUM,DARTMOUTH,,N,5
01DP004,MIDDLE RIVER OF PICTOU AT ROCKLIN,NS,Active,45.49739,-62.78019,1965,2018,92.2,,N,Flow and Level,Continuous,Y,Y,Y,ASSUMED DATUM,DARTMOUTH,,N,42.1139411926
01DP005,MIDDLE RIVER AT ALMA,NS,Discontinued,45.57972,-62.75333,1966,1966,204,,N,Flow,Seasonal,N,N,N,ASSUMED DATUM,DARTMOUTH,,N,10.4561634064
01DQ001,EAST FRENCH RIVER NEAR MERIGOMISH,NS,Discontinued,45.605,-62.42944,1977,1977,69.7,,N,Flow,Seasonal,N,N,N,ASSUMED DATUM,DARTMOUTH,,N,21.2942371368
01DR001,SOUTH RIVER AT ST. ANDREWS,NS,Active,45.55972,-61.90364,1918,2018,177,,N,Flow and Level,Continuous,N,N,Y,ASSUMED DATUM,DARTMOUTH,,N,11
01DR002,JAMES RIVER NEAR JAMES RIVER,NS,Discontinued,45.58056,-62.10583,1978,1979,52.1,,N,Flow,Continuous,N,N,N,ASSUMED DATUM,DARTMOUTH,,N,56.9951400757
01DR003,RIGHTS RIVER NEAR ANTIGONISH,NS,Discontinued,45.64556,-62.02083,1979,1990,64.2,,N,Flow,Continuous,N,N,N,ASSUMED DATUM,DARTMOUTH,,N,24.5213222504
01EA001,TUSKET RIVER AT TUSKET FALLS,NS,Discontinued,43.88139,-65.97389,1915,1929,1450,,N,Flow,Continuous,N,N,N,ASSUMED DATUM,DARTMOUTH,,N,7.0585174561
01EA002,TUSKET RIVER (WEST BRANCH) AT REYNARD BRIDGE,NS,Discontinued,43.92778,-65.93333,1920,1929,337,,N,Flow,Continuous,N,N,N,ASSUMED DATUM,DARTMOUTH,,N,9.9309825897
01EA003,TUSKET RIVER AT WILSON'S BRIDGE,NS,Active,43.92481,-65.86853,1929,2018,1070,,R,Flow and Level,Continuous,N,N,Y,ASSUMED DATUM,DARTMOUTH,,N,19.5642814636
01EC001,ROSEWAY RIVER AT LOWER OHIO,NS,Active,43.83736,-65.36911,1918,2018,495,,N,Flow and Level,Continuous,N,Y,Y,ASSUMED DATUM,DARTMOUTH,,N,36.3339576721
01EC002,BLUE HILL BOG BROOK NEAR JORDAN FALLS,NS,Discontinued,43.82833,-65.19472,1987,1995,22.8,,N,Flow,Continuous,N,N,N,ASSUMED DATUM,DARTMOUTH,,N,33
01ED001,MERSEY RIVER AT INDIAN GARDENS,NS,Discontinued,44.16139,-65.00861,1916,1929,1550,,R,Flow,Continuous,N,N,N,ASSUMED DATUM,DARTMOUTH,,N,78.2573318481
01ED002,MERSEY RIVER AT LOWER GREAT BROOK FALLS,NS,Discontinued,44.09,-64.84583,1930,1954,1940,,R,Flow,Continuous,N,N,N,ASSUMED DATUM,DARTMOUTH,,N,30.8657779694
01ED003,MERSEY RIVER AT MILTON,NS,Discontinued,44.06667,-64.765,1955,1979,1960,,R,Flow,Continuous,N,N,N,ASSUMED DATUM,DARTMOUTH,,N,9
01ED004,LAKE ROSSIGNOL AT UPPER LAKE FALLS,NS,Discontinued,44.15722,-64.99944,1940,1968,1670,,R,Level,Miscellaneous,N,N,N,ASSUMED DATUM,DARTMOUTH,NOVA SCOTIA POWER CORPORATION,Y,81.1822052002
01ED005,MERSEY RIVER BELOW GEORGE LAKE,NS,Active,44.33314,-65.20508,1968,2018,723,,N,Flow and Level,Continuous,N,Y,Y,ASSUMED DATUM,DARTMOUTH,,N,89.741065979
01ED006,KEJIMKUJIK LAKE,NS,Discontinued,44.38278,-65.20639,1969,1996,,,N,Level,Continuous,N,N,N,ASSUMED DATUM,DARTMOUTH,,N,89
01ED007,MERSEY RIVER BELOW MILL FALLS,NS,Active,44.43678,-65.22186,1968,2018,295,,N,Flow and Level,Continuous,Y,Y,Y,ASSUMED DATUM,DARTMOUTH,,N,106.8619537354
01ED008,BEAVERSKIN BROOK AT BEAVERSKIN LAKE,NS,Discontinued,44.305,-65.33639,1979,1980,1.09,,N,Flow,Continuous,N,N,N,ASSUMED DATUM,DARTMOUTH,,N,115.0389175415
01ED009,ROGERS BROOK NEAR JAKES LANDING,NS,Discontinued,44.44611,-65.21667,1983,1989,8.74,,N,Flow,Miscellaneous,N,N,N,ASSUMED DATUM,DARTMOUTH,,N,125.3568878174
01ED010,ROGERS BROOK NEAR GRAFTON ROAD,NS,Discontinued,44.42694,-65.21528,1991,1991,1.4,,N,Flow,Continuous,N,N,N,ASSUMED DATUM,DARTMOUTH,,N,115.8286895752
01ED011,"ROGERS BROOK NEAR GRAFTON ROAD, SITE  NO.2",NS,Discontinued,44.42778,-65.21333,1991,1996,0.59,,N,Flow,Miscellaneous,N,N,N,ASSUMED DATUM,DARTMOUTH,,N,116.5768966675
01ED013,SHELBURNE RIVER AT POLLARD'S FALLS BRIDGE,NS,Active,44.21542,-65.24142,1999,2018,268,,N,Flow and Level,Continuous,N,N,Y,ASSUMED DATUM,DARTMOUTH,,N,88.0928421021
01EE001,MEDWAY RIVER AT CHARLESTON,NS,Discontinued,44.17333,-64.66,1915,1996,1390,,R,Flow,Continuous,N,N,N,ASSUMED DATUM,DARTMOUTH,,N,7.1991109848
01EE002,MEDWAY RIVER AT HARMONY MILLS,NS,Discontinued,44.41333,-65.055,1918,1982,342,,R,Flow,Continuous,N,N,N,ASSUMED DATUM,DARTMOUTH,,N,89.157333374
01EE003,HERRING COVE BROOK NEAR BROOKLYN,NS,Discontinued,44.06222,-64.69278,1948,1948,59.6,,R,Flow,Seasonal,N,N,N,ASSUMED DATUM,DARTMOUTH,,N,14
01EE004,WESTFIELD RIVER NEAR NORTH BROOKFIELD,NS,Discontinued,44.40611,-64.98806,1981,1990,143,,N,Flow,Continuous,N,N,N,ASSUMED DATUM,DARTMOUTH,,N,85.3022232056
01EE005,MOOSE PIT BROOK AT TUPPER LAKE,NS,Active,44.46183,-65.04778,1981,2018,17.7,,N,Flow and Level,Continuous,N,N,Y,ASSUMED DATUM,DARTMOUTH,,N,100.9853668213
01EE006,ROUND LAKE BROOK AT ROUND LAKE,NS,Discontinued,44.49389,-64.97361,1981,1988,56.5,,N,Flow,Continuous,N,N,N,ASSUMED DATUM,DARTMOUTH,,N,136.7115478516
01EE007,WHITEBURN BROOK BELOW POLLOCK LAKE,NS,Discontinued,44.35278,-65.09083,1983,1989,9.49,,N,Flow,Miscellaneous,N,N,N,ASSUMED DATUM,DARTMOUTH,,N,98.8573913574
01EF001,LAHAVE RIVER AT WEST NORTHFIELD,NS,Active,44.44744,-64.59119,1915,2018,1250,,N,Flow and Level,Continuous,N,Y,Y,ASSUMED DATUM,DARTMOUTH,,N,26
01EF003,LA HAVE RIVER ABOVE MORGAN'S FALLS,NS,Discontinued,44.53861,-64.71722,1915,1979,728,,R,Flow,Continuous,N,N,N,ASSUMED DATUM,DARTMOUTH,,N,60.4715385437
01EG001,GOLD RIVER NEAR CHESTER BASIN,NS,Discontinued,44.55778,-64.3275,1917,1917,373,,R,Flow,Miscellaneous,N,N,N,ASSUMED DATUM,DARTMOUTH,,N,15
01EG002,GOLD RIVER AT MOSHER'S FALLS,NS,Discontinued,44.56444,-64.35167,1965,1996,370,,N,Flow,Continuous,N,Y,N,ASSUMED DATUM,DARTMOUTH,,N,36.5289955139
01EH001,NORTHEAST RIVER AT ST. MARGARET'S BAY,NS,Discontinued,44.7,-63.89444,1915,1917,91.9,,R,Flow,Continuous,N,N,N,ASSUMED DATUM,DARTMOUTH,,N,25.484954834
01EH002,INDIAN RIVER AT ST. MARGARET'S BAY,NS,Discontinued,44.70333,-63.90833,1915,1920,176,,R,Flow,Continuous,N,N,N,ASSUMED DATUM,DARTMOUTH,,N,35.7577209473
01EH003,EAST RIVER AT ST. MARGARETS BAY,NS,Discontinued,44.685,-63.87167,1925,1994,26.9,,N,Flow,Continuous,N,N,N,ASSUMED DATUM,DARTMOUTH,,N,51.201713562
01EH004,LITTLE EAST RIVER CHESTER NEAR EAST RIVER POINT,NS,Discontinued,44.58278,-64.13917,1977,1978,25.1,,N,Flow,Miscellaneous,N,N,N,ASSUMED DATUM,DARTMOUTH,,N,17.1104946136
01EH005,LITTLE EAST RIVER CHESTER AT ROUS POINT,NS,Discontinued,44.56944,-64.14472,1977,1978,28.5,,N,Flow,Miscellaneous,N,N,N,ASSUMED DATUM,DARTMOUTH,,N,8.9202060699
01EH006,CANAAN RIVER AT OUTLET OF CONNAUGHT LAKE,NS,Discontinued,44.64694,-64.19389,1986,1996,65.4,,N,Flow,Continuous,N,N,N,ASSUMED DATUM,DARTMOUTH,,N,94.8977127075
01EJ001,SACKVILLE RIVER AT BEDFORD,NS,Active,44.73153,-63.66044,1970,2018,146,,N,Flow and Level,Continuous,Y,N,Y,ASSUMED DATUM,DARTMOUTH,,N,5.5787081718
01EJ002,KEARNEY RUN AT MILLVIEW,NS,Discontinued,44.71389,-63.68139,1970,1973,36,,N,Flow,Continuous,N,N,N,ASSUMED DATUM,DARTMOUTH,,N,17.5295448303
01EJ004,LITTLE SACKVILLE RIVER AT MIDDLE SACKVILLE,NS,Active,44.76447,-63.6875,1980,2018,13.1,,N,Flow and Level,Continuous,Y,N,Y,ASSUMED DATUM,DARTMOUTH,,N,29.5522060394
01EJ005,MCINTOSH RUN AT HERRING COVE ROAD,NS,Discontinued,44.60861,-63.61694,1989,1990,15.1,,R,Flow,Continuous,N,N,N,ASSUMED DATUM,DARTMOUTH,,N,50.7968978882
01EJ006,MCINTOSH RUN AT OLD SAMBRO ROAD,NS,Discontinued,44.61333,-63.62306,1990,1994,13.9,,,Flow,Continuous,N,N,N,,DARTMOUTH,,N,58.4862289429
01EK001,MUSQUODOBOIT RIVER AT CRAWFORD FALLS,NS,Discontinued,44.87167,-63.22167,1915,1996,650,,R,Flow,Continuous,N,N,N,ASSUMED DATUM,DARTMOUTH,,N,24.094083786
01EK002,LITTLE RIVER AT PETPESWICK INLET,NS,Discontinued,44.78056,-63.15667,1971,1971,52.3,,N,Flow,Seasonal,N,N,N,ASSUMED DATUM,DARTMOUTH,,N,5.1947231293
01EK003,MUSQUODOBOIT RIVER NEAR MIDDLE MUSQUODOBOIT,NS,Discontinued,45.04333,-63.14167,1974,1983,334,,R,Flow,Continuous,N,N,N,ASSUMED DATUM,DARTMOUTH,,N,30.6926708221
01EK004,MUSQUODOBOIT RIVER NEAR UPPER MUSQUODOBOIT,NS,Discontinued,45.12472,-62.96444,1974,1983,141,,R,Flow,Continuous,N,N,N,ASSUMED DATUM,DARTMOUTH,,N,50.6982345581
01EM001,EAST RIVER SHEET HARBOUR AT MALAY FALLS,NS,Discontinued,44.98583,-62.48583,1915,1923,526,,R,Flow,Continuous,N,N,N,ASSUMED DATUM,DARTMOUTH,,N,36.3426551819
01EM002,LITTLE WEST RIVER NEAR SHEET HARBOUR,NS,Discontinued,44.90111,-62.56083,1988,1990,45.8,,N,Flow,Continuous,N,N,N,ASSUMED DATUM,DARTMOUTH,,N,27.0760040283
01EN001,LISCOMB RIVER AT LISCOMB FALLS,NS,Discontinued,45.03444,-62.10639,1916,1918,386,,R,Flow,Continuous,N,N,N,ASSUMED DATUM,DARTMOUTH,,N,27.9444484711
01EN002,LISCOMB RIVER AT LISCOMB MILLS,NS,Discontinued,45.015,-62.09583,1962,1996,389,,N,Flow,Continuous,N,N,N,ASSUMED DATUM,DARTMOUTH,,N,3.6461160183
01EN003,HALFWAY BROOK NEAR SHEET HARBOUR,NS,Discontinued,44.90389,-62.45444,1987,1995,16.9,,N,Flow,Continuous,N,N,N,ASSUMED DATUM,DARTMOUTH,,N,34
01EO001,ST. MARYS RIVER AT STILLWATER,NS,Active,45.17439,-61.97992,1915,2018,1350,,N,Flow and Level,Continuous,N,Y,Y,ASSUMED DATUM,DARTMOUTH,,N,22.8894443512
01EO002,ARCHIBALD BROOK AT STILLWATER,NS,Discontinued,45.17583,-61.97583,1916,1926,49.2,,N,Flow,Continuous,N,N,N,ASSUMED DATUM,DARTMOUTH,,N,16.3386878967
01EO003,EAST RIVER ST. MARYS AT NEWTOWN,NS,Discontinued,45.36,-62.13556,1965,1979,282,,N,Flow,Continuous,N,N,N,ASSUMED DATUM,DARTMOUTH,,N,39.7394676208
01ER001,CLAM HARBOUR RIVER NEAR BIRCHTOWN,NS,Discontinued,45.46833,-61.46,1959,1995,45.1,,N,Flow,Continuous,N,N,N,ASSUMED DATUM,DARTMOUTH,,N,80.8804550171
01ER002,ST. FRANCIS RIVER AT GOOSE HARBOUR LAKE,NS,Discontinued,45.53417,-61.41667,1958,1960,23.8,,N,Flow,Continuous,N,N,N,ASSUMED DATUM,DARTMOUTH,,N,145.8342590332
01FA001,RIVER INHABITANTS AT GLENORA,NS,Active,45.72025,-61.28611,1965,2018,193,,N,Flow and Level,Continuous,N,Y,Y,ASSUMED DATUM,DARTMOUTH,,N,5.3551678658
01FA002,LITTLE RIVER NEAR PORT RICHMOND,NS,Discontinued,45.60333,-61.25944,1967,1968,41.4,,R,Flow,Seasonal,N,N,N,ASSUMED DATUM,DARTMOUTH,,N,7.451107502
01FA003,NORTH LITTLE RIVER BELOW BEAVER DAM LAKE,NS,Discontinued,45.63056,-61.28472,1969,1988,26.7,,R,Flow,Continuous,N,N,N,ASSUMED DATUM,DARTMOUTH,,N,30.3811206818
01FB001,NORTHEAST MARGAREE RIVER AT MARGAREE VALLEY,NS,Active,46.36897,-60.97528,1916,2018,368,,N,Flow and Level,Continuous,N,Y,Y,ASSUMED DATUM,DARTMOUTH,,N,45.1289978027
01FB002,SOUTHWEST MARGAREE RIVER AT MARGAREE FORKS,NS,Discontinued,46.33611,-61.09917,1918,1918,,,N,Level,Continuous,N,N,N,ASSUMED DATUM,DARTMOUTH,,N,12.4048852921
01FB003,SOUTHWEST MARGAREE RIVER NEAR UPPER MARGAREE,NS,Active,46.22311,-61.13692,1918,2018,357,,N,Flow and Level,Continuous,N,Y,Y,ASSUMED DATUM,DARTMOUTH,,N,48.5633392334
01FB004,SOUTHWEST MARGAREE RIVER AT SCOTSVILLE,NS,Discontinued,46.18806,-61.15944,1927,1928,311,,N,Flow,Continuous,N,N,N,ASSUMED DATUM,DARTMOUTH,,N,60
01FB005,APRIL BROOK AT GILLISDALE,NS,Discontinued,46.23139,-61.14167,1966,1979,6.22,,N,Flow,Continuous,Y,N,N,ASSUMED DATUM,DARTMOUTH,,N,67.9037857056
01FB006,LAKE O'LAW BROOK AT EGYPT ROAD,NS,Discontinued,46.31472,-60.97306,1978,1995,37.8,,N,Flow,Continuous,N,N,N,ASSUMED DATUM,DARTMOUTH,,N,51.4017906189
01FC001,CHETICAMP RIVER BELOW CHETICAMP LAKE,NS,Discontinued,46.65111,-60.66306,1958,1977,49.2,,N,Flow,Continuous,N,N,N,ASSUMED DATUM,DARTMOUTH,,N,467.0256958008
01FC002,CHETICAMP RIVER ABOVE ROBERT BROOK,NS,Active,46.64158,-60.94611,1958,2018,190,,R,Flow and Level,Continuous,N,N,Y,ASSUMED DATUM,DARTMOUTH,,N,19.5841617584
01FC003,CHETICAMP RIVER BELOW ARTEMISE BROOK,NS,Discontinued,46.61722,-60.73417,1978,2012,37,,R,Flow,Seasonal,N,N,N,ASSUMED DATUM,DARTMOUTH,,N,382.579498291
01FD001,WRECK COVE BROOK NEAR WRECK COVE,NS,Discontinued,46.52306,-60.42222,1956,1977,31,,N,Flow,Continuous,N,N,N,GEODETIC SURVEY OF CANADA DATUM,DARTMOUTH,,N,26.9048461914
01FE001,INDIAN BROOK NEAR MATHESON'S LAKE,NS,Discontinued,46.49861,-60.57917,1960,1977,82.4,,N,Flow,Continuous,N,N,N,ASSUMED DATUM,DARTMOUTH,,N,327.2791137695
01FE002,INDIAN BROOK AT INDIAN BROOK,NS,Discontinued,46.37172,-60.53369,1960,2016,125,,R,Flow and Level,Continuous,N,N,N,ASSUMED DATUM,DARTMOUTH,,N,10.6963415146
01FF001,MIDDLE RIVER AT MACLENNANS CROSS,NS,Active,46.19,-60.94181,2004,2018,123,,N,Flow and Level,Continuous,N,N,Y,ASSUMED DATUM,DARTMOUTH,,N,54.6905632019
01FG001,RIVER DENYS AT BIG MARSH,NS,Active,45.89369,-61.20475,2005,2018,14,,N,Flow and Level,Continuous,N,N,Y,ASSUMED DATUM,DARTMOUTH,,N,19
01FH001,GRAND RIVER AT LOCH LOMOND,NS,Discontinued,45.73,-60.60333,1920,1996,120,,N,Flow,Continuous,N,N,N,ASSUMED DATUM,DARTMOUTH,,N,47.9706459045
01FJ001,SALMON RIVER AT SALMON RIVER BRIDGE,NS,Discontinued,45.93417,-60.30278,1965,1995,199,,N,Flow,Continuous,Y,N,N,ASSUMED DATUM,DARTMOUTH,,N,11.065322876
01FJ002,MACASKILLS BROOK NEAR BIRCH GROVE,NS,Active,46.11789,-60.00467,1978,2018,17.2,,N,Flow and Level,Continuous,N,N,Y,ASSUMED DATUM,DARTMOUTH,,N,27
01FJ003,SOUTHWEST BROOK NEAR COLLEGE OF CAPE BRETON,NS,Discontinued,46.17222,-60.0925,1983,1983,23.3,,N,Flow,Miscellaneous,N,N,N,ASSUMED DATUM,DARTMOUTH,,N,29.5084514618
01FJ004,NORTHWEST BROOK BELOW GRAND LAKE,NS,Discontinued,46.16861,-60.11889,1987,1990,20.9,,N,Flow,Miscellaneous,N,N,N,ASSUMED DATUM,DARTMOUTH,,N,33
01FJ006,FIFES BROOK NEAR MILL POND,NS,Discontinued,46.30083,-60.36583,1988,1992,34.3,,N,Flow,Continuous,N,N,N,ASSUMED DATUM,DARTMOUTH,,N,5.8839893341
02AA001,PIGEON RIVER AT MIDDLE FALLS,ON,Discontinued,48.01222,-89.61611,1924,2000,1550,,N,Flow,Continuous,Y,Y,N,ASSUMED DATUM,BURLINGTON,UNITED STATES GEOLOGICAL SURVEY,Y,245.9538421631
02AA002,PINE RIVER NEAR CROOKS,ON,Discontinued,48.07222,-89.53333,1973,1978,389,,N,Flow,Continuous,N,N,N,ASSUMED DATUM,BURLINGTON,,N,211.7807922363
02AB001,KAMINISTIQUIA RIVER NEAR DONA,ON,Discontinued,48.55556,-89.58861,1921,1956,3630,,R,Flow,Continuous,N,N,N,,BURLINGTON,,N,305.5636291504
02AB002,SHEBANDOWAN RIVER NEAR KAMINISTIQUIA,ON,Discontinued,48.54583,-89.62361,1921,1923,2850,,R,Flow,Seasonal,N,N,N,,BURLINGTON,,N,337.0800476074
02AB003,KAMINISTIQUIA RIVER AT MOKOMON,ON,Discontinued,48.49167,-89.6,1922,1924,6790,,R,Level,Seasonal,N,N,N,GEODETIC SURVEY OF CANADA DATUM,BURLINGTON,,N,347.2583312988
02AB004,KAMINISTIQUIA RIVER AT OUTLET OF DOG LAKE,ON,Discontinued,48.70833,-89.63333,1926,1994,3760,,R,Flow,Continuous,N,N,N,,BURLINGTON,ONTARIO MINISTRY OF THE ENVIRONMENT,Y,419.3987121582
02AB005,SHEBANDOWAN RIVER AT GLENWATER,ON,Discontinued,48.54333,-89.78333,1923,1957,2560,,R,Flow,Continuous,N,N,N,,BURLINGTON,,N,364.6879272461
02AB006,KAMINISTIQUIA RIVER AT KAMINISTIQUIA,ON,Active,48.53231,-89.595,1926,2018,6470,,R,Flow and Level,Continuous,Y,N,Y,GEODETIC SURVEY OF CANADA DATUM,BURLINGTON,,N,301.0465393066
02AB007,KAMINISTIQUIA RIVER AT STANLEY,ON,Discontinued,48.36806,-89.56528,1927,1931,7740,,R,Flow,Continuous,N,N,N,,BURLINGTON,,N,210.8746185303
02AB008,NEEBING RIVER NEAR THUNDER BAY,ON,Active,48.38339,-89.30656,1953,2018,187,,N,Flow and Level,Continuous,Y,Y,Y,GEODETIC SURVEY OF CANADA DATUM,BURLINGTON,,N,185.6472625732
02AB009,SHEBANDOWAN RIVER AT SUNSHINE,ON,Discontinued,48.55556,-89.68194,1957,1995,2800,,R,Flow,Continuous,N,N,N,ASSUMED DATUM,BURLINGTON,,N,358.5646972656
02AB010,KAMINISTIQUIA RIVER AT KAKABEKA FALLS POWERHOUSE,ON,Discontinued,48.41556,-89.63083,1923,1994,6710,,R,Flow,Continuous,N,N,N,,BURLINGTON,ONTARIO MINISTRY OF THE ENVIRONMENT,Y,278.7434387207
02AB011,SHEBANDOWAN RIVER AT OUTLET OF SHEBANDOWAN LAKE,ON,Discontinued,48.61972,-90.06167,1924,1994,,,R,Flow,Continuous,N,N,N,,BURLINGTON,ONTARIO MINISTRY OF THE ENVIRONMENT,Y,449.3973388672
02AB012,GREENWATER CREEK AT OUTLET OF GREENWATER LAKE,ON,Discontinued,48.60778,-90.45583,1979,1994,174,,R,Flow,Miscellaneous,N,N,N,ASSUMED DATUM,BURLINGTON,ONTARIO MINISTRY OF THE ENVIRONMENT,Y,455.6835632324
02AB013,KASHABOWIE RIVER AT OUTLET OF KASHABOWIE LAKE,ON,Discontinued,48.65694,-90.4175,1951,1994,526,,R,Flow,Continuous,N,N,N,,BURLINGTON,ONTARIO MINISTRY OF THE ENVIRONMENT,Y,463.991973877
02AB014,NORTH CURRENT RIVER NEAR THUNDER BAY,ON,Active,48.51956,-89.17503,1972,2018,105,,N,Flow and Level,Continuous,N,N,Y,ASSUMED DATUM,BURLINGTON,,N,335.4869384766
02AB015,CURRENT RIVER NEAR STEPSTONE,ON,Discontinued,48.53611,-89.23611,1972,1987,492,,R,Flow,Continuous,N,N,N,ASSUMED DATUM,BURLINGTON,,N,331.2715759277
02AB016,MCINTYRE RIVER AT THUNDER BAY,ON,Discontinued,48.41861,-89.26528,1972,1986,145,,R,Flow,Continuous,N,N,N,ASSUMED DATUM,BURLINGTON,,N,198.9715576172
02AB017,WHITEFISH RIVER AT NOLALU,ON,Active,48.29211,-89.80986,1980,2018,226,,N,Flow and Level,Continuous,Y,N,Y,GEODETIC SURVEY OF CANADA DATUM,BURLINGTON,,N,320.9307556152
02AB018,LAKE SUPERIOR AT THUNDER BAY,ON,Active,48.40967,-89.21731,1915,2018,,,N,Level,Continuous,N,N,N,INTERNATIONAL GREAT LAKES DATUM (1985),BURLINGTON,FISHERIES AND OCEANS CANADA,Y,184
02AB019,MCVICAR CREEK AT THUNDER BAY,ON,Active,48.4492,-89.21861,1985,2018,45.6,,N,Flow and Level,Continuous,N,N,Y,ASSUMED DATUM,BURLINGTON,,N,220.8556671143
02AB020,MCINTYRE RIVER ABOVE THUNDER BAY,ON,Active,48.48269,-89.32464,1986,2018,83.1,,R,Flow and Level,Continuous,Y,N,Y,ASSUMED DATUM,BURLINGTON,,N,308.5242919922
02AB021,CURRENT RIVER AT STEPSTONE,ON,Active,48.56244,-89.24067,1988,2018,407,,N,Flow and Level,Continuous,Y,N,Y,ASSUMED DATUM,BURLINGTON,,N,333.5809326172
02AB022,CORBETT CREEK NEAR MURILLO,ON,Active,48.42862,-89.54563,2003,2018,42.6,,N,,Continuous,N,N,Y,ASSUMED DATUM,BURLINGTON,,N,307.0038757324
02AB023,SLATE RIVER NEAR THUNDER BAY,ON,Active,48.32576,-89.40421,2007,2018,181,,N,,Continuous,N,N,Y,ASSUMED DATUM,BURLINGTON,,N,210.4686126709
02AB024,NEEBING RIVER NEAR INTOLA,ON,Active,48.44281,-89.35776,2007,2018,54.2,,,,Continuous,N,N,Y,ASSUMED DATUM,BURLINGTON,,N,272.7111206055
02AB025,KAMINISTIQUIA RIVER AT WEST FORT WILLIAM,ON,Active,48.34786,-89.35328,2007,2018,7740,,R,,Continuous,N,N,Y,GEODETIC SURVEY OF CANADA DATUM 1928 ADJUSTMENT,BURLINGTON,,N,183.368270874
02AB026,KAMINISTIQUIA RIVER ABOVE WEST FORT WILLIAM,ON,Active,48.34611,-89.38619,2007,2018,8100,,,Level,Continuous,N,N,Y,ASSUMED DATUM,BURLINGTON,,N,189.4613647461
02AB027,WHITEFISH RIVER NEAR STANLEY,ON,Active,48.3593,-89.60352,2017,2018,581,,,Level,Continuous,N,N,Y,ASSUMED DATUM,BURLINGTON,,N,213.806640625
02AC001,WOLF RIVER AT HIGHWAY NO. 17,ON,Active,48.82169,-88.53461,1971,2018,726,,N,Flow and Level,Continuous,Y,N,Y,GEODETIC SURVEY OF CANADA DATUM,BURLINGTON,,N,192.0533599854
02AC002,BLACK STURGEON RIVER AT HIGHWAY NO. 17,ON,Active,48.90422,-88.37686,1971,2018,2980,,N,Flow and Level,Continuous,Y,N,Y,ASSUMED DATUM,BURLINGTON,,N,199.2057800293
02AD002,NIPIGON RIVER NEAR CAMERON FALLS,ON,Discontinued,49.15,-88.33333,1924,1926,23600,,R,Flow,Seasonal,N,N,N,,BURLINGTON,ONTARIO POWER GENERATION,Y,224.9435424805
02AD003,LAKE NIPIGON AT ORIENT BAY,ON,Discontinued,49.36944,-88.14444,1921,1932,,,R,Level,Continuous,N,N,N,GEODETIC SURVEY OF CANADA DATUM,BURLINGTON,ONTARIO POWER GENERATION,Y,269.7545776367
02AD006,NIPIGON RIVER BELOW VIRGIN FALLS,ON,Discontinued,49.41667,-88.21667,1926,1950,24500,,R,Flow,Continuous,N,N,N,,BURLINGTON,ONTARIO POWER GENERATION,Y,278.2524719238
02AD007,LAKE NIPIGON AT MACDIARMID,ON,Discontinued,49.43389,-88.13194,1927,1994,,,R,Level,Continuous,N,N,N,GEODETIC SURVEY OF CANADA DATUM,BURLINGTON,ONTARIO MINISTRY OF THE ENVIRONMENT,Y,259
02AD008,NIPIGON RIVER AT PINE PORTAGE,ON,Discontinued,49.30778,-88.31111,1950,1994,24600,,R,Flow,Continuous,N,N,N,ASSUMED DATUM,BURLINGTON,ONTARIO MINISTRY OF THE ENVIRONMENT,Y,244.3213806152
02AD009,OGOKI RIVER DIVERSION TO LAKE NIPIGON,ON,Discontinued,50.6375,-88.20833,1943,1994,,,R,Flow,Continuous,N,N,N,ASSUMED DATUM,BURLINGTON,ONTARIO MINISTRY OF THE ENVIRONMENT,Y,336.9573059082
02AD010,BLACKWATER RIVER AT BEARDMORE,ON,Active,49.59761,-87.96544,1971,2018,652,,N,Flow and Level,Continuous,N,N,Y,GEODETIC SURVEY OF CANADA DATUM,BURLINGTON,,N,305
02AD011,NAMEWAMINIKAN RIVER AT LONG RAPIDS,ON,Discontinued,49.76389,-87.76806,1987,1987,2190,,N,Flow,Miscellaneous,N,N,N,ASSUMED DATUM,BURLINGTON,,N,318
02AD012,NIPIGON RIVER BELOW ALEXANDER GENERATING STATION,ON,Active,49.1227,-88.35787,2007,2018,24700,,R,Flow and Level,Continuous,N,N,Y,ASSUMED DATUM,BURLINGTON,,N,189.8993988037
02AE001,GRAVEL RIVER NEAR CAVERS,ON,Active,48.926,-87.69019,1974,2018,608,,N,Flow and Level,Continuous,Y,N,Y,ASSUMED DATUM,BURLINGTON,,N,215.1770629883
02BA002,STEEL RIVER NEAR TERRACE BAY,ON,Discontinued,48.77778,-86.88444,1970,1994,1190,,N,Flow,Continuous,Y,N,N,ASSUMED DATUM,BURLINGTON,,N,195.4432830811
02BA003,LITTLE PIC RIVER NEAR COLDWELL,ON,Active,48.84911,-86.60722,1972,2018,1320,,N,Flow and Level,Continuous,Y,N,Y,ASSUMED DATUM,BURLINGTON,,N,196.5473480225
02BA004,LAKE SUPERIOR AT ROSSPORT,ON,Active,48.83372,-87.51956,1967,2018,,,N,Level,Continuous,N,N,N,INTERNATIONAL GREAT LAKES DATUM (1985),BURLINGTON,FISHERIES AND OCEANS CANADA,Y,184
02BA005,WHITESAND RIVER ABOVE SCHREIBER AT MINOVA MINE,ON,Active,48.97811,-87.37678,1989,2018,20.9,,N,Flow and Level,Continuous,Y,N,Y,ASSUMED DATUM,BURLINGTON,,N,447.6746826172
02BA006,STEEL RIVER BELOW SANTOY LAKE,ON,Active,48.81371,-86.85934,2003,2018,1190,,N,,Continuous,Y,N,Y,ASSUMED DATUM,BURLINGTON,,N,217.3547363281
02BB002,BLACK RIVER NEAR MARATHON,ON,Discontinued,48.68889,-86.2125,1967,1994,1980,,N,Flow and Level,Continuous,Y,N,N,ASSUMED DATUM,BURLINGTON,,N,238
02BB003,PIC RIVER NEAR MARATHON,ON,Active,48.77408,-86.29661,1970,2018,4220,,N,Flow and Level,Continuous,Y,N,Y,ASSUMED DATUM,BURLINGTON,,N,189
02BB004,CEDAR CREEK NEAR HEMLO,ON,Active,48.70542,-85.90794,1984,2018,210,,R,Flow and Level,Continuous,N,N,Y,ASSUMED DATUM,BURLINGTON,,N,310.2492675781
02BB101,TEST STATION NO.1 FOR FTS LOGGER- BURLINGTON,ON,Active,51,-79,2015,2018,,,,Level,Continuous,Y,N,N,,BURLINGTON,,N,94
02BB102,TEST STATION NO.2 FOR FTS LOGGER,ON,Active,52,-79,2017,2018,,,,,Continuous,Y,N,N,,BURLINGTON,,N,0
02BBX01,TEST STATION,ON,Active,43.29853,-79.80185,2011,2018,,,,Level,Miscellaneous,N,N,N,,BURLINGTON,,N,77.9404144287
02BC002,WHITE RIVER AT BERTRAND,ON,Discontinued,48.66667,-85.7,1953,1960,2400,,R,Flow,Continuous,N,N,N,,BURLINGTON,,N,331.1669311523
02BC003,WHITE RIVER AT REGAN,ON,Discontinued,48.7,-85.63333,1949,1955,,,R,Flow,Continuous,N,N,N,ASSUMED DATUM,BURLINGTON,,N,328
02BC004,WHITE RIVER BELOW WHITE LAKE,ON,Discontinued,48.6548,-85.74153,1959,2015,4160,,R,Flow and Level,Continuous,Y,N,N,ASSUMED DATUM,BURLINGTON,,N,329.120513916
02BC005,PUKASKWA RIVER AT PUKASKWA NATIONAL PARK,ON,Discontinued,48.06092,-85.80336,1991,2006,533,,N,Flow and Level,Continuous,Y,N,N,ASSUMED DATUM,BURLINGTON,,N,235
02BC006,PUKASKWA RIVER BELOW FOX RIVER,ON,Active,48.16039,-85.73092,2006,2018,407,,,Flow and Level,Continuous,N,N,Y,ASSUMED DATUM,BURLINGTON,,N,350.488861084
02BC007,WHITE LAKE AT WHITE LAKE PROVINCIAL PARK,ON,Active,48.69289,-85.64214,2007,2018,,,R,Level,Continuous,N,N,Y,ASSUMED DATUM,BURLINGTON,,N,331.6255187988
02BC008,WHITE RIVER ABOVE OSKABUKUTA RIVER,ON,Active,48.58783,-85.89128,2017,2018,4210,4210,R,,Continuous,N,N,Y,ASSUMED DATUM,BURLINGTON,,N,294.0287780762
02BD001,MAGPIE RIVER AT STEEP HILL FALLS,ON,Discontinued,48.06778,-84.74056,1920,1939,1640,,R,Flow,Continuous,N,N,N,ASSUMED DATUM,BURLINGTON,,N,297.2269897461
02BD002,MICHIPICOTEN RIVER AT SCOTT FALLS,ON,Active,47.91083,-84.74333,1924,2018,5310,,R,Flow,Continuous,N,N,N,ASSUMED DATUM,BURLINGTON,GREAT LAKES POWER COMPANY LIMITED,Y,221.6875457764
02BD003,MAGPIE RIVER NEAR MICHIPICOTEN,ON,Discontinued,47.93889,-84.83056,1953,1990,1930,,N,Flow,Continuous,Y,N,N,ASSUMED DATUM,BURLINGTON,,N,197.2089233398
02BD004,LAKE SUPERIOR AT MICHIPICOTEN HARBOUR,ON,Active,47.96169,-84.89828,1918,2018,,,N,Level,Continuous,N,N,N,INTERNATIONAL GREAT LAKES DATUM (1985),BURLINGTON,FISHERIES AND OCEANS CANADA,Y,188.6730651855
02BD005,MAGPIE RIVER AT ESNAGI LAKE,ON,Active,48.48044,-84.53269,1988,2018,702,,R,Level,Continuous,N,N,Y,GEODETIC SURVEY OF CANADA DATUM,BURLINGTON,,N,350.9674682617
02BD006,WAWA CREEK AT WAWA,ON,Active,47.98939,-84.76811,1989,2018,31.4,,R,Flow and Level,Continuous,N,N,Y,ASSUMED DATUM,BURLINGTON,,N,285.046295166
02BD007,MAGPIE RIVER NEAR WAWA,ON,Active,48.02203,-84.81317,2000,2018,1950,,R,Flow and Level,Continuous,N,N,Y,ASSUMED DATUM,BURLINGTON,,N,257
02BE001,MONTREAL RIVER AT ALGOMA CENTRAL AND HUDSON BAY RAILWAY,ON,Discontinued,47.275,-84.43333,1915,1935,2850,,N,Flow,Seasonal,N,N,N,,BURLINGTON,,N,372.6658325195
02BE002,MONTREAL RIVER NEAR MONTREAL RIVER HARBOUR,ON,Active,47.21389,-84.61944,1935,2018,2880,,R,Flow,Continuous,N,N,N,ASSUMED DATUM,BURLINGTON,GREAT LAKES POWER COMPANY LIMITED,Y,247.4668884277
02BF001,BATCHAWANA RIVER NEAR BATCHAWANA,ON,Active,47.00353,-84.51556,1967,2018,1230,,N,Flow and Level,Continuous,Y,N,Y,ASSUMED DATUM,BURLINGTON,,N,222.313583374
02BF002,GOULAIS RIVER NEAR SEARCHMONT,ON,Active,46.86094,-83.97181,1967,2018,1140,,N,Flow and Level,Continuous,Y,Y,Y,ASSUMED DATUM,BURLINGTON,,N,286.7710876465
02BF003,BENNET CREEK AT SAULT STE. MARIE,ON,Discontinued,46.53139,-84.3975,1971,1978,18.6,,N,Flow,Continuous,N,N,N,,BURLINGTON,,N,188.2450408936
02BF004,BIG CARP RIVER NEAR SAULT STE. MARIE,ON,Active,46.51589,-84.46518,1979,2018,51,,N,Flow and Level,Continuous,Y,N,Y,ASSUMED DATUM,BURLINGTON,,N,185.9577636719
02BF005,NORBERG CREEK (SITE A) ABOVE BATCHAWANA RIVER,ON,Active,47.06253,-84.43072,1980,2018,10.4,,N,Flow and Level,Continuous,N,N,Y,ASSUMED DATUM,BURLINGTON,,N,337.4074707031
02BF006,NORBERG CREEK (SITE B) AT OUTLET OF TURKEY LAKE,ON,Active,47.05053,-84.41278,1979,2018,8.03,,N,Flow and Level,Continuous,N,N,N,ASSUMED DATUM,BURLINGTON,,N,368.1687316895
02BF007,NORBERG CREEK (SITE C) AT OUTLET OF LITTLE TURKEY LAKE,ON,Active,47.04472,-84.41025,1981,2018,5.05,,N,Flow and Level,Continuous,N,N,N,ASSUMED DATUM,BURLINGTON,,N,372.2471618652
02BF008,NORBERG CREEK (SITE D) BELOW WISHART LAKE,ON,Active,47.04625,-84.40319,1980,2018,4.08,,N,Flow and Level,Continuous,N,N,N,ASSUMED DATUM,BURLINGTON,,N,379.636932373
02BF009,NORBERG CREEK (SITE E) BELOW BATCHAWANA LAKE,ON,Active,47.05778,-84.4,1981,2018,2.04,,N,Flow and Level,Continuous,N,N,N,ASSUMED DATUM,BURLINGTON,,N,449.2255249023
02BF010,LAKE SUPERIOR AT GROS CAP,ON,Active,46.52914,-84.58628,1961,2018,,,N,Level,Continuous,N,N,N,INTERNATIONAL GREAT LAKES DATUM (1985),BURLINGTON,FISHERIES AND OCEANS CANADA,Y,185.9904937744
02BF011,ST. MARYS RIVER AT SAULT STE. MARIE (ABOVE),ON,Active,46.51247,-84.36733,1911,2018,,,R,Level,Continuous,N,N,N,INTERNATIONAL GREAT LAKES DATUM (1985),BURLINGTON,FISHERIES AND OCEANS CANADA,Y,182
02BF012,NORBERG CREEK (SITE F) AT OUTLET OF BATCHAWANA LAKE,ON,Active,47.06281,-84.39253,1982,2018,1.15,,N,Flow and Level,Continuous,N,N,N,ASSUMED DATUM,BURLINGTON,,N,495.1163635254
02BF013,TRIBUTARY TO NORBERG CREEK AT TURKEY LAKE,ON,Active,47.04167,-84.41681,1988,2018,0.07,,N,Flow and Level,Continuous,N,N,N,ASSUMED DATUM,BURLINGTON,,N,380.3731079102
02BF014,GOULAIS RIVER NEAR KIRBY'S CORNER,ON,Active,46.71739,-84.28478,2007,2018,1830,,R,,Continuous,N,N,Y,ASSUMED DATUM,BURLINGTON,,N,195.8691558838
02CA001,ST. MARYS RIVER AT SAULT STE. MARIE,ON,Discontinued,46.50944,-84.36167,1860,1993,210000,,R,Flow,Continuous,N,N,N,INTERNATIONAL GREAT LAKES DATUM (1955),BURLINGTON,INTERNATIONAL LAKE SUPERIOR BOARD OF CONTROL,Y,180.2146911621
02CA002,ROOT RIVER AT SAULT STE. MARIE,ON,Active,46.56286,-84.28169,1971,2018,109,,N,Flow and Level,Continuous,Y,N,Y,ASSUMED DATUM,BURLINGTON,,N,197.5135040283
02CA003,ST. MARYS RIVER NEAR GARDEN RIVER,ON,Active,46.53258,-84.13125,1973,2018,,,R,Level,Continuous,N,N,Y,ASSUMED DATUM,BURLINGTON,,N,180.1743469238
02CA004,ST. MARYS RIVER ABOVE CLARK CREEK,ON,Discontinued,46.49611,-84.28417,1975,1978,,,R,Level,Seasonal,N,N,N,ASSUMED DATUM,BURLINGTON,,N,179.3981628418
02CA005,ST. MARYS RIVER AT SAULT STE. MARIE (BELOW),ON,Active,46.51128,-84.34322,1911,2018,,,R,Level,Continuous,N,N,N,INTERNATIONAL GREAT LAKES DATUM (1985),BURLINGTON,FISHERIES AND OCEANS CANADA,Y,177
02CA006,LAKE HURON AT THESSALON,ON,Active,46.254,-83.55106,1926,2018,,,N,Level,Continuous,N,N,N,INTERNATIONAL GREAT LAKES DATUM (1985),BURLINGTON,FISHERIES AND OCEANS CANADA,Y,176
02CA007,THESSALON RIVER NEAR POPLAR DALE,ON,Active,46.53047,-83.70961,2007,2018,272,,R,,Continuous,N,N,Y,ASSUMED DATUM,BURLINGTON,,N,212.4786987305
02CA008,ST. MARYS RIVER ABOVE TOPSAIL ISLAND,ON,Active,46.49833,-84.31528,2008,2018,210000,,,,Continuous,N,N,N,,BURLINGTON,UNITED STATES GEOLOGICAL SURVEY,Y,174.3651428223
02CB001,MISSISSAGI RIVER BELOW AUBREY FALLS,ON,Discontinued,46.91167,-83.21056,1946,1994,4040,,R,Flow,Continuous,N,N,N,ASSUMED DATUM,BURLINGTON,ONTARIO MINISTRY OF THE ENVIRONMENT,Y,365.2478027344
02CB002,MISSISSAGI RIVER AT ROCKY ISLAND LAKE,ON,Discontinued,46.86667,-83.15528,1950,1994,2150,,R,Flow and Level,Continuous,N,N,N,GEODETIC SURVEY OF CANADA DATUM,BURLINGTON,ONTARIO MINISTRY OF THE ENVIRONMENT,Y,411
02CB003,AUBINADONG RIVER ABOVE SESABIC CREEK,ON,Active,46.96842,-83.41686,1980,2018,1450,,N,Flow and Level,Continuous,N,N,Y,ASSUMED DATUM,BURLINGTON,,N,348.1401062012
02CC002,MISSISSAGI RIVER AT IRON BRIDGE,ON,Discontinued,46.27917,-83.22361,1915,1919,9040,,N,Flow,Continuous,N,N,N,,BURLINGTON,ONTARIO POWER GENERATION,Y,181.6275482178
02CC003,MISSISSAGI RIVER BELOW IRON BRIDGE,ON,Discontinued,46.25417,-83.18472,1919,1920,9250,,R,Flow,Continuous,N,N,N,,BURLINGTON,ONTARIO POWER GENERATION,Y,173
02CC004,MISSISSAGI RIVER AT MISSISSAGI,ON,Discontinued,46.24444,-83.15556,1920,1950,9270,,R,Flow,Continuous,N,N,N,,BURLINGTON,,N,180
02CC005,LITTLE WHITE RIVER NEAR BELLINGHAM,ON,Active,46.39395,-83.28298,1942,2018,1970,,R,Flow and Level,Continuous,N,N,Y,ASSUMED DATUM,BURLINGTON,,N,211.8185577393
02CC006,MISSISSAGI RIVER NEAR WHARNCLIFFE,ON,Discontinued,46.41389,-83.39306,1947,1950,7100,,R,Flow,Continuous,N,N,N,,BURLINGTON,,N,214.3973388672
02CC007,MISSISSAGI RIVER AT RAYNER GENERATING STATION,ON,Discontinued,46.43528,-83.38472,1950,1994,6840,,R,Flow,Continuous,N,N,N,,BURLINGTON,ONTARIO MINISTRY OF THE ENVIRONMENT,Y,270
02CC008,MISSISSAGI RIVER AT MISSISSAGI CHUTE,ON,Active,46.20136,-83.02539,1961,2018,9260,,R,Flow and Level,Continuous,Y,N,N,ASSUMED DATUM,BURLINGTON,,N,184.6669311523
02CC009,MISSISSAGI RIVER AT RED ROCK FALLS,ON,Discontinued,46.31583,-83.29083,1960,1994,9010,,R,Flow,Continuous,N,N,N,ASSUMED DATUM,BURLINGTON,ONTARIO MINISTRY OF THE ENVIRONMENT,Y,197.2519836426
02CC010,LITTLE WHITE RIVER BELOW BOLAND RIVER,ON,Active,46.58114,-82.968,1980,2018,1210,,R,Flow and Level,Continuous,N,N,Y,ASSUMED DATUM,BURLINGTON,,N,289.7225036621
02CD001,SERPENT RIVER AT HIGHWAY NO. 17,ON,Active,46.21078,-82.51242,1966,2018,1350,,R,Flow and Level,Continuous,Y,N,Y,ASSUMED DATUM,BURLINGTON,,N,189.2945098877
02CD002,SERPENT RIVER AT OUTLET OF DUNLOP LAKE,ON,Discontinued,46.48139,-82.64806,1977,1993,109,,R,Flow,Continuous,N,N,N,ASSUMED DATUM,BURLINGTON,,N,352.1110839844
02CD003,SERPENT RIVER BELOW QUIRKE LAKE,ON,Discontinued,46.48639,-82.48111,1977,1993,319,,R,Flow,Continuous,N,N,N,ASSUMED DATUM,BURLINGTON,,N,337.3013305664
02CD004,SERPENT RIVER BELOW PECORS LAKE,ON,Discontinued,46.37444,-82.43833,1977,1994,567,,R,Flow,Continuous,N,N,N,ASSUMED DATUM,BURLINGTON,,N,284.2822875977
02CD005,ROCHESTER CREEK ABOVE QUIRKE LAKE,ON,Discontinued,46.5,-82.52111,1977,1985,99.5,,N,Flow,Continuous,N,N,N,ASSUMED DATUM,BURLINGTON,,N,351.3840026855
02CD006,SERPENT RIVER ABOVE QUIRKE LAKE,ON,Active,46.51158,-82.60028,1973,2018,157,,N,Flow and Level,Continuous,N,N,Y,ASSUMED DATUM,BURLINGTON,,N,349.0616455078
02CD007,LITTLE NORDIC CREEK AT ELLIOT LAKE,ON,Discontinued,46.35333,-82.64361,1982,1989,4.58,,,Flow,Continuous,N,N,N,ASSUMED DATUM,BURLINGTON,,N,291.2813415527
02CD008,NORDIC MINE TAILINGS DITCH (SITE 1) NEAR ELLIOT LAKE,ON,Discontinued,46.3875,-82.5825,1984,1986,2.09,,N,Flow,Seasonal,N,N,N,ASSUMED DATUM,BURLINGTON,,N,345
02CD009,NORDIC MINE TAILINGS DITCH (SITE 2) NEAR ELLIOT LAKE,ON,Discontinued,46.38694,-82.57194,1984,1986,2.76,,N,Flow,Seasonal,N,N,N,ASSUMED DATUM,BURLINGTON,,N,342.5111083984
02CD010,NORDIC MINE TAILINGS DITCH (SITE 3) NEAR ELLIOT LAKE,ON,Discontinued,46.38194,-82.57944,1984,1986,3.01,,N,Flow,Seasonal,N,N,N,ASSUMED DATUM,BURLINGTON,,N,335.488861084
02CE001,SPANISH RIVER AT ESPANOLA,ON,Discontinued,46.26806,-81.77222,1915,1994,11400,,R,Flow,Continuous,N,N,N,ASSUMED DATUM,BURLINGTON,EDDY FOREST PRODUCTS LIMITED,Y,187.0106811523
02CE002,AUX SABLES RIVER AT MASSEY,ON,Active,46.21494,-82.07081,1915,2018,1340,,R,Flow and Level,Continuous,Y,N,Y,ASSUMED DATUM,BURLINGTON,,N,188.1773681641
02CE003,SPANISH RIVER AT WEBBWOOD,ON,Discontinued,46.26389,-81.87361,1918,1920,,,R,Flow,Seasonal,N,N,N,,BURLINGTON,ONTARIO POWER GENERATION,Y,182.6515655518
02CE004,SPANISH RIVER AT HIGH FALLS,ON,Discontinued,46.38056,-81.56861,1920,1993,6800,,R,Flow,Continuous,N,N,N,ASSUMED DATUM,BURLINGTON,INTERNATIONAL NICKEL COMPANY OF CANADA LIMITED,Y,245.2623748779
02CE007,MINISTIC CREEK ABOVE AGNEW LAKE,ON,Active,46.42957,-81.60033,2006,2018,40.6,,N,,Continuous,N,N,Y,ASSUMED DATUM,BURLINGTON,,N,280.9056396484
02CE103,MINISTIC CREEK NEAR AGNEW LAKE MINE,ON,Discontinued,46.40833,-81.57778,1978,1979,41.2,,N,Flow,Seasonal,N,N,N,,BURLINGTON,ONTARIO MINISTRY OF THE ENVIRONMENT,Y,275.9080200195
02CF001,VERMILION RIVER NEAR WHITEFISH,ON,Discontinued,46.39444,-81.28194,1915,1920,3600,,R,Flow and Level,Continuous,N,N,N,ASSUMED DATUM,BURLINGTON,ONTARIO POWER GENERATION,Y,238.8213043213
02CF002,VERMILION RIVER BELOW KUSK LAKE,ON,Discontinued,46.33333,-81.35,1919,1933,4070,,R,Flow,Continuous,N,N,N,,BURLINGTON,,N,240
02CF004,VERMILION RIVER AT LORNE FALLS,ON,Discontinued,46.31528,-81.52167,1918,1993,4190,,R,Flow,Continuous,N,N,N,ASSUMED DATUM,BURLINGTON,INTERNATIONAL NICKEL COMPANY OF CANADA LIMITED,Y,214.7890472412
02CF005,JUNCTION CREEK AT SUDBURY,ON,Active,46.47872,-81.01042,1958,2018,87,,R,Flow and Level,Continuous,N,N,Y,ASSUMED DATUM,BURLINGTON,,N,255
02CF007,WHITSON RIVER AT CHELMSFORD,ON,Active,46.58336,-81.19911,1960,2018,277,,N,Flow and Level,Continuous,N,N,Y,ASSUMED DATUM,BURLINGTON,,N,269.6407165527
02CF008,WHITSON RIVER AT VAL CARON,ON,Active,46.61017,-81.03297,1975,2018,179,,N,Flow and Level,Continuous,N,Y,Y,ASSUMED DATUM,BURLINGTON,,N,280
02CF009,NOLIN CREEK AT SUDBURY,ON,Discontinued,46.4975,-81.00694,1959,1994,21.5,,R,Flow,Continuous,Y,N,N,ASSUMED DATUM,BURLINGTON,,N,261.6284179688
02CF010,ONAPING RIVER NEAR LEVACK,ON,Active,46.5995,-81.38197,1976,2018,1650,,R,Flow and Level,Continuous,N,N,Y,ASSUMED DATUM,BURLINGTON,,N,310
02CF011,VERMILION RIVER NEAR VAL CARON,ON,Active,46.68544,-81.00925,1972,2018,680,,N,Flow and Level,Continuous,Y,N,Y,ASSUMED DATUM,BURLINGTON,,N,285
02CF012,JUNCTION CREEK BELOW KELLEY LAKE,ON,Active,46.42731,-81.09844,1977,2018,199,,N,Flow and Level,Continuous,N,N,Y,ASSUMED DATUM,BURLINGTON,,N,249
02CF013,MOOSE CREEK AT LEVACK,ON,Active,46.63594,-81.39147,1981,2018,40.6,,R,Flow and Level,Continuous,N,N,Y,ASSUMED DATUM,BURLINGTON,,N,330.0132751465
02CF014,VERMILION RIVER NEAR MILNET,ON,Active,46.81944,-80.95714,2005,2018,541,,,,Continuous,N,N,Y,ASSUMED DATUM,BURLINGTON,,N,321
02CF100,VERMILION RIVER NEAR CAPREOL,ON,Discontinued,46.715,-80.95028,1970,1977,635,,N,Flow,Seasonal,N,N,N,ASSUMED DATUM,BURLINGTON,ONTARIO MINISTRY OF THE ENVIRONMENT,Y,303
02CG001,KAGAWONG RIVER AT KAGAWONG,ON,Discontinued,45.9,-82.26667,1915,1917,243,,R,Flow,Continuous,N,N,N,,BURLINGTON,ONTARIO POWER GENERATION,Y,208.1199951172
02CG002,LAKE HURON AT LITTLE CURRENT,ON,Active,45.98053,-81.92436,1959,2018,,,N,Level,Continuous,N,N,N,INTERNATIONAL GREAT LAKES DATUM (1985),BURLINGTON,FISHERIES AND OCEANS CANADA,Y,176
02CG003,BLUE JAY CREEK NEAR TEHKUMMAH,ON,Active,45.65169,-81.98661,1985,2018,17.9,,N,Flow and Level,Continuous,N,N,Y,ASSUMED DATUM,BURLINGTON,,N,197
02CG004,GRIMSTHORPE CREEK NEAR GRIMSTHORPE,ON,Discontinued,45.6939,-82.3347,2006,2013,63.1,,,Flow and Level,Continuous,N,N,N,ASSUMED DATUM,BURLINGTON,,N,181
02CG005,MINDEMOYA LAKE AT MINDEMOYA,ON,Active,45.74989,-82.18489,2007,2018,157,,R,Level,Continuous,N,N,Y,ASSUMED DATUM,BURLINGTON,,N,200
02CH001,FROOD LAKE NEAR WHITEFISH FALLS,ON,Active,46.11861,-81.72839,2005,2018,930,,R,Level,Continuous,N,N,Y,ASSUMED DATUM,BURLINGTON,,N,192.5096893311
02CH002,PANACHE LAKE AT JACKSON'S POINT,ON,Active,46.27358,-81.34458,2005,2018,624,,R,Level,Continuous,N,N,Y,ASSUMED DATUM,BURLINGTON,,N,224
02DA001,WANAPITEI RIVER AT OUTLET OF WANAPITEI LAKE,ON,Discontinued,46.66417,-80.67333,1952,1957,2540,,R,Flow,Seasonal,N,N,N,,BURLINGTON,,N,262.4044494629
02DA002,WANAPITEI LAKE AT BOWLANDS BAY,ON,Discontinued,46.65611,-80.7675,1953,1994,,,R,Level,Continuous,N,N,N,GEODETIC SURVEY OF CANADA DATUM,BURLINGTON,ONTARIO MINISTRY OF THE ENVIRONMENT,Y,284.3750915527
02DB001,WANAPITEI RIVER NEAR WANAPITEI,ON,Discontinued,46.52222,-80.70972,1915,1916,2770,,N,Flow,Seasonal,N,N,N,,BURLINGTON,ONTARIO POWER GENERATION,Y,252.57421875
02DB002,WANAPITEI RIVER AT MCVITTIES,ON,Discontinued,46.31667,-80.8375,1916,1923,3240,,R,Flow,Seasonal,N,N,N,,BURLINGTON,ONTARIO POWER GENERATION,Y,211
02DB003,WANAPITEI RIVER NEAR CONISTON,ON,Discontinued,46.47222,-80.81944,1922,1952,2820,,R,Flow,Continuous,N,N,N,,BURLINGTON,,N,239.3351287842
02DB004,CONISTON CREEK NEAR CONISTON,ON,Discontinued,46.47917,-80.81944,1952,1956,64.8,,N,Flow,Miscellaneous,N,N,N,,BURLINGTON,,N,250.4356231689
02DB005,WANAPITEI RIVER NEAR WANUP,ON,Active,46.34567,-80.83956,1952,2018,3150,,R,Flow and Level,Continuous,Y,N,Y,ASSUMED DATUM,BURLINGTON,,N,217.5279388428
02DB006,WANAPETEI RIVER NEAR STINSON,ON,Discontinued,46.52083,-80.71139,1974,1980,2750,,R,Flow,Continuous,N,N,N,ASSUMED DATUM,BURLINGTON,ONTARIO MINISTRY OF THE ENVIRONMENT,Y,240.0392913818
02DB007,CONISTON CREEK ABOVE WANAPITEI RIVER,ON,Active,46.47528,-80.82153,1980,2018,59,,N,Flow and Level,Continuous,N,N,Y,ASSUMED DATUM,BURLINGTON,,N,233.0737915039
02DC001,STURGEON RIVER AT SMOKY FALLS,ON,Discontinued,46.45,-79.86667,1914,1920,6660,,R,Flow,Continuous,N,N,N,,BURLINGTON,ONTARIO POWER GENERATION,Y,229.2017822266
02DC002,STURGEON RIVER BELOW SMOKY FALLS,ON,Discontinued,46.45,-79.86667,1922,1922,6660,,R,Flow,Miscellaneous,N,N,N,,BURLINGTON,,N,229.2017822266
02DC003,STURGEON RIVER AT CRYSTAL FALLS,ON,Discontinued,46.45,-79.86306,1921,1994,6660,,R,Flow,Continuous,N,N,N,ASSUMED DATUM,BURLINGTON,ONTARIO MINISTRY OF THE ENVIRONMENT,Y,220
02DC004,STURGEON RIVER NEAR GLEN AFTON,ON,Active,46.63717,-80.26325,1941,2018,3010,,R,Flow and Level,Continuous,N,N,Y,ASSUMED DATUM,BURLINGTON,,N,231.5533752441
02DC005,TEMAGAMI RIVER NEAR RIVER VALLEY,ON,Discontinued,46.59611,-80.18722,1941,1962,2460,,R,Flow,Continuous,N,N,N,,BURLINGTON,,N,230.6013336182
02DC006,TOMIKO RIVER AT OUTLET OF TOMIKO LAKE,ON,Discontinued,46.50139,-79.89333,1941,1960,570,,R,Flow,Continuous,N,N,N,,BURLINGTON,,N,252.7693328857
02DC007,TEMAGAMI RIVER AT CROSS LAKE DAM,ON,Discontinued,46.77806,-79.97861,1941,1994,1360,,R,Flow,Continuous,N,N,N,TEMISKAMING AND NORTHERN ONTARIO RAILWAY DATUM,BURLINGTON,ONTARIO MINISTRY OF THE ENVIRONMENT,Y,291
02DC008,TEMAGAMI RIVER AT RED CEDAR LAKE DAM,ON,Discontinued,46.67917,-79.995,1939,1994,2360,,R,Flow,Continuous,N,N,N,ASSUMED DATUM,BURLINGTON,ONTARIO POWER GENERATION,Y,279
02DC009,MARTEN RIVER AT WICKSTEED LAKE DAM,ON,Discontinued,46.71194,-79.73694,1949,1976,298,,R,Flow,Continuous,N,N,N,GEODETIC SURVEY OF CANADA DATUM,BURLINGTON,ONTARIO POWER GENERATION,Y,288.8508911133
02DC010,TEMAGAMI LAKE AT TEMAGAMI,ON,Discontinued,47.06278,-79.79556,1926,1994,,,R,Level,Continuous,N,N,N,GEODETIC SURVEY OF CANADA DATUM,BURLINGTON,ONTARIO MINISTRY OF THE ENVIRONMENT,Y,293
02DC011,STURGEON RIVER AT LOWER GOOSE FALLS,ON,Discontinued,46.93694,-80.43139,1981,1985,1800,,N,Flow,Continuous,N,N,N,ASSUMED DATUM,BURLINGTON,,N,250.8799743652
02DC012,STURGEON RIVER AT UPPER GOOSE FALLS,ON,Active,46.97025,-80.45878,1985,2018,1200,,N,Flow and Level,Continuous,N,N,Y,ASSUMED DATUM,BURLINGTON,,N,263.8798522949
02DC013,LITTLE STURGEON RIVER BELOW BOOTH LAKE,ON,Active,46.42761,-79.66203,2008,2018,164,164,,Flow and Level,Continuous,N,N,Y,ASSUMED DATUM,BURLINGTON,,N,264.5689697266
02DD001,SOUTH RIVER NEAR POWASSAN,ON,Discontinued,46.09444,-79.39583,1914,1936,761,,R,Flow,Continuous,N,N,N,ASSUMED DATUM,BURLINGTON,ONTARIO POWER GENERATION,Y,241
02DD002,SOUTH RIVER ABOVE TRUISLER CHUTE,ON,Discontinued,45.96333,-79.40583,1919,1952,420,,R,Flow,Continuous,N,N,N,,BURLINGTON,,N,301.1006164551
02DD004,FRENCH RIVER AT FRENCH RIVER,ON,Discontinued,46.02056,-80.57306,1930,1962,13900,,R,Flow,Continuous,N,N,N,,BURLINGTON,,N,185.8252716064
02DD005,SOUTH RIVER NEAR NIPISSING,ON,Discontinued,46.09694,-79.47917,1937,1984,787,,R,Flow,Continuous,N,N,N,ASSUMED DATUM,BURLINGTON,,N,212
02DD006,LAKE NIPISSING AT NORTH BAY,ON,Active,46.31183,-79.47381,1933,2018,,,R,Level,Continuous,N,N,Y,ASSUMED DATUM,BURLINGTON,,N,195.4988555908
02DD007,FRENCH RIVER AT LAKE NIPISSING,ON,Discontinued,46.125,-80.01528,1951,1998,12300,,R,Flow,Continuous,N,N,N,FRENCH RIVER DATUM,BURLINGTON,,N,201.3999938965
02DD008,DUCHESNAY RIVER NEAR NORTH BAY,ON,Discontinued,46.33139,-79.50556,1956,1982,90.4,,N,Flow,Continuous,N,N,N,ASSUMED DATUM,BURLINGTON,,N,205.0879669189
02DD009,SOUTH RIVER AT SOUTH RIVER,ON,Discontinued,45.84833,-79.37944,1956,1991,316,,R,Flow,Continuous,N,N,N,ASSUMED DATUM,BURLINGTON,,N,335.2096862793
02DD010,FRENCH RIVER AT DRY PINE BAY,ON,Active,46.06858,-80.61164,1961,2018,13900,,R,Flow and Level,Continuous,Y,N,Y,ASSUMED DATUM,BURLINGTON,,N,187.9683532715
02DD012,VEUVE RIVER NEAR VERNER,ON,Active,46.40819,-80.12281,1973,2018,741,,N,Flow and Level,Continuous,N,N,Y,ASSUMED DATUM,BURLINGTON,,N,200.3013153076
02DD013,LA VASE RIVER AT NORTH BAY,ON,Active,46.26344,-79.39511,1974,2018,68.6,,N,Flow and Level,Continuous,N,N,Y,ASSUMED DATUM,BURLINGTON,,N,200.9618682861
02DD014,CHIPPEWA CREEK AT NORTH BAY,ON,Active,46.31178,-79.44836,1974,2018,35.6,,N,Flow and Level,Continuous,Y,N,Y,ASSUMED DATUM,BURLINGTON,,N,203
02DD015,COMMANDA CREEK NEAR COMMANDA,ON,Active,45.94919,-79.60658,1974,2018,104,,N,Flow and Level,Continuous,N,N,Y,ASSUMED DATUM,BURLINGTON,,N,268.4325256348
02DD016,FRENCH RIVER AT PORTAGE DAM,ON,Active,46.1205,-80.01808,1951,2018,,,R,Flow and Level,Continuous,N,N,Y,ASSUMED DATUM,BURLINGTON,,N,188.1273956299
02DD017,FRENCH RIVER AT CHAUDIERE DAM,ON,Active,46.12083,-80.0275,1951,2018,,,R,Flow and Level,Continuous,N,N,Y,ASSUMED DATUM,BURLINGTON,,N,199.0902709961
02DD018,LITTLE FRENCH RIVER AT FREEFLOWING CHANNEL,ON,Discontinued,46.14194,-80.11444,1951,1981,,,N,Flow,Continuous,N,N,N,FRENCH RIVER DATUM,BURLINGTON,,N,202.2782440186
02DD019,LITTLE FRENCH RIVER AT LITTLE CHAUDIERE DAM,ON,Discontinued,46.14444,-80.12806,1951,1981,,,R,Flow,Continuous,N,N,N,FRENCH RIVER DATUM,BURLINGTON,,N,203.8986816406
02DD020,LITTLE FRENCH RIVER AT OKIKENDAWT ISLAND,ON,Active,46.12314,-80.07911,1982,2018,,,,Flow and Level,Continuous,N,N,Y,ASSUMED DATUM NO. 2,BURLINGTON,,N,192.1377868652
02DD021,LAKE NIPISSING AT FRENCH RIVER OUTLET,ON,Active,46.12553,-80.01231,1951,2018,,,R,Level,Continuous,N,N,Y,ASSUMED DATUM,BURLINGTON,,N,195.1527404785
02DD022,DOLLARS LAKE BELOW S NARROWS,ON,Active,45.92039,-80.24175,2005,2018,,,R,Level,Continuous,N,N,Y,ASSUMED DATUM,BURLINGTON,,N,205.9514007568
02DD023,FOREST LAKE AT SOUTH RIVER,ON,Active,45.83969,-79.35692,2005,2018,,,,Level,Continuous,N,N,Y,ASSUMED DATUM,BURLINGTON,,N,352.565246582
02DD024,WASI RIVER NEAR ASTORVILLE,ON,Active,46.17842,-79.30989,2007,2018,301,301,R,Flow and Level,Continuous,N,N,Y,ASSUMED DATUM,BURLINGTON,,N,249.1984100342
02DD025,FRENCH RIVER AT HARTLEY BAY,ON,Active,46.03511,-80.76017,2008,2018,1.55,,R,Level,Continuous,N,N,Y,GEODETIC SURVEY OF CANADA DATUM,BURLINGTON,,N,183.8583831787
02DD026,FRENCH RIVER AT WOLSELEY BAY,ON,Active,46.10572,-80.26528,2008,2018,199,,R,Flow and Level,Continuous,N,N,Y,GEODETIC SURVEY OF CANADA DATUM,BURLINGTON,,N,186
02DDX01,FRENCH RIVER AT RECOLLET FALLS,ON,Active,46.93333,-80.53994,1981,2018,,,,Flow,Miscellaneous,N,N,N,ASSUMED DATUM,BURLINGTON,,N,286.8598632813
02DDX02,FRENCH RIVER AT LITTLE FRENCH CUT,ON,Active,46.00594,-80.53994,1981,2018,,,,Flow,Miscellaneous,N,N,N,ASSUMED DATUM,BURLINGTON,,N,183.9747772217
02DDX03,FRENCH RIVER AT HORSESHOE FALLS,ON,Active,46.01614,-80.48714,1981,2018,,,,Flow,Miscellaneous,N,N,N,ASSUMED DATUM,BURLINGTON,,N,189.8335876465
02DDX04,FRENCH RIVER AT CEDAR RAPIDS,ON,Active,46.08686,-80.29961,2011,2018,,,,Flow,Miscellaneous,N,N,N,ASSUMED DATUM,BURLINGTON,,N,187.1632080078
02DDX05,FRENCH RIVER AT BIG PINE RAPIDS,ON,Active,46.06722,-80.20578,1997,2018,,,,Flow,Miscellaneous,N,N,N,ASSUMED DATUM,BURLINGTON,,N,185
02DDX06,FRENCH RIVER AT RAINY RAPIDS,ON,Active,46.06156,-80.18869,1997,2018,,,,Flow,Miscellaneous,N,N,N,ASSUMED DATUM,BURLINGTON,,N,186.0368499756
02EA001,SEGUIN RIVER NEAR PARRY SOUND,ON,Discontinued,45.40278,-79.90694,1915,1917,984,,R,Flow,Continuous,N,N,N,,BURLINGTON,ONTARIO POWER GENERATION,Y,209.7271270752
02EA005,NORTH MAGNETAWAN RIVER NEAR BURK'S FALLS,ON,Active,45.66947,-79.37919,1915,2018,329,,N,Flow and Level,Continuous,N,Y,Y,ASSUMED DATUM,BURLINGTON,,N,314.2590637207
02EA006,MAGNETAWAN RIVER NEAR BURK'S FALLS,ON,Discontinued,45.6175,-79.38806,1915,1998,650,,R,Flow,Continuous,N,N,N,ASSUMED DATUM,BURLINGTON,,N,291.8017883301
02EA007,MAGNETAWAN RIVER NEAR BYNG INLET,ON,Discontinued,45.77222,-80.48056,1945,1949,2800,,R,Flow,Continuous,N,N,N,,BURLINGTON,,N,181.477355957
